osm_id,osm_type,latitude,longitude,FIXME,addr:city,addr:commune,addr:country,addr:county,addr:district,addr:full,addr:housename,addr:housenumber,addr:locality,addr:municipality,addr:parish,addr:postcode,addr:province,addr:quarter,addr:street,addr:subcounty,addr:subdistrict,addr:suburb,addr:village,addr:ward,alt_name,amenity,area,attribution,barrier,building,building:condition,building:floor,building:levels,building:material,building:min_level,cables,check:date,check_date,comment,contact:email,contact:facebook,contact:phone,contact:twitter,contact:website,date,denomination,description,education,email,fixme,frequency,grades,health_facility:CD,healthcare,height,id:uuid,is_in,is_in:admin_level4,is_in:admin_level6,is_in:admin_level7,is_in:admin_level8,is_in:educ_level6,is_in:health_level10,is_in:health_level6,is_in:health_level8,is_in:province,is_in:village,isced,isced:level,landuse,man_made,max_age,min_age,name,name:de,name:en,name:fr,name:hu,name:ln,note,note:de,office,official_name,old_name,opening_hours,operator,operator:type,osm_id,osm_type,phone,project:oif-dfen_carteinnov,religion,school,school:CD,school:boarding,school:gender,short_name,source,source:alt_name,source:date,source:geometry,source:geometry:date,source:name,source:outline,source:position,source:ref,source_date,source_ref,start_date,strapline,surface,survey,survey:date,survey_date,toilets,type,vaccination,wall,website,wheelchair,wikidata,wikimedia_commons,wikipedia
435579834,node,-4.4690518,15.2243459,,,,,,,,,,,,,,,,,,,,,,,school,,,,,,,,,,,,2025-10-04,,,,,,,,,,,,,,,,,,,,,,,,,,,,,,,,,,,,Materdei,,,,,,,Mission und Schule,,,,,,,435579834,node,,,,,,,,,,,,,,,,,,,,,,,,,,,,,,,,,,
440111691,node,-4.3053231,15.3147319,,,,,,,,,,,,,,,,,,,,,,,school,,,,,,,,,,,,2023-05-06,,,,,,,,,,,,,,,,,,,,,,,,,,,,,,,,,,,,Institute Georges Simenon,,,,,,,,,,,,,,440111691,node,,,,,,,,,,,,,,,,,,,,,,,,,,,,,,,,,,
583344995,node,-4.3216269,15.5163084,,,,,,,,,,,,,,,,,,,,,,,school,,,,,,,,,,,,,,,,,,,,,,,,,,,,,,,,,,,,,,,,,,,,,,,,Institut de Kinkole,,,,,,,,,,,,,,583344995,node,,,,,,,,,,,,,,,,,,,,,,,,,,,,,,,,,,
655933898,node,2.7952524,24.7376833,,,,,,,,,,,,,,,,,,,,,,,school,,,,,,,,,,,,,,,,,,,,roman_catholic,,,,,,,,,,,,,,,,,,,,,,,,,,,,Lycée catholique,,,,,,,,,,,,Église Catholique,,655933898,node,,,christian,,,,,,,,,,,,,,,,,,,,,,,,,,,,,,,
708413265,node,3.1832605,27.8657858,,,,,,,,,,,,,,,,,,,,,,,school,,,,,,,,,,,,,,,,,,,,,,,,yes,,,,,,,Rungu,,,,,,,,,,,,,,,,,Petit séminaire Sainte Thérèse,,,,,,approximative,,,,,,Diocese of Isiro-Ningara,,708413265,node,,,,,,,,,,,,,,,,,,,,,,,,,,,,,,,,,,
712894085,node,-4.3772481,15.3351266,,,,,,,,,,,,,,,,,,,,,,,school,,,,,,,,,,,,,,,,,,,,,,,,,,,,,,,,,,,,,,,,,,,,,,,,École Presbyterienne,,,,,,,,,,,,,,712894085,node,,,,,,,,,,,,,,,,,,,,,,,,,,,,,,,,,,
713203651,node,-4.3812127,15.3359821,,,,,,,,,,,,,,,,,,,,,,,school,,,,,,,,,,,,,,,,,,,,,,,,,,,,,,,,,,,,,,,,,,,,,,,,École Massemba,,,,,,,,,,,,,,713203651,node,,,,,,,,,,,,,,,,,,,,,,,,,,,,,,,,,,
713306937,node,-4.3849285,15.3369215,,,,,,,,,,,,,,,,,,,,,,,school,,,,,,,,,,,,,,,,,,,,,,,,,,,,,,,,,,,,,,,,,,,,,,,,Ecole Maternelle Massamba,,,,,,,,,,,,,,713306937,node,,,,,,,,,,,,,,,,,,,,,,,,,,,,,,,,,,
715858834,node,-4.3457112,15.293557,,,,,,,,,,,,,,,,,,,,,,,school,,,,,,,,,,,,,,,,,,,,,,,,,,,,,,,,,,,,,,,,,,,,,,,,École St-Louis,,,,,,,,,,,,,,715858834,node,,,,,,,,,,,,,,,,,,,,,,,,,,,,,,,,,,
715858837,node,-4.3475774,15.2929726,,,,,,,,,,,,,,,,,,,,,,,school,,,,,,,,,,,,,,,,,,,,,,,,,,,,,,,,,,,,,,,,,,,,,,,,École officielle,,,,,,,,,,,,,,715858837,node,,,,,,,,,,,,,,,,,,,,,,,,,,,,,,,,,,
715862489,node,-4.3531403,15.2903763,,Kinshasa,,,,,,,,,,,,,,,,,,,,,school,,,,,,,,,,,,,,,,,,,,,,,,,,,,,,,,,,,,,,,,,,,,,,,,Institut Diangenda,,,,,,,,,,,,,,715862489,node,,,,,,,,,,,,,,,,,,,,,,,,,,,,,,,,,,
715863893,node,-4.3605004,15.3014055,,,,,,,,,,,,,,,,,,,,,,,school,,,,,,,,,,,,,,,,,,,,,,,,,,,,,,,,,,,,,,,,,,,,,,,,École officielle,,,,,,,,,,,,,,715863893,node,,,,,,,,,,,,,,,,,,,,,,,,,,,,,,,,,,
715863894,node,-4.3621937,15.2881578,,Saïo,,,,,,,,,,,,,,Avenue Yonso,,,,,,,school,,,,,,,,,,,,,,,,,,,,,,,,,,,,,,,,,,,,,,,,,,,,,,,,Ecole Technique ITIP Bumbu,,,,,,,,,,,,,,715863894,node,,,,,,,,,,,,,,,,,,,,,,,,,,,,,,,,,,
759214401,node,-4.3890772,15.3126137,,,,,,,,,,,,,,,,,,,,,,,school,,,,,,,,,,,,,,,,,,,,,,,,,,,,,,,,,,,,,,,,,,,,,,,,École catholique Sainte Christine,,,,,,,,,,,,,,759214401,node,,,,,,,,,,,,,,,,,,,,,,,,,,,,,,,,,,
789373903,node,-4.3224534,15.5169931,,,,,,,,,,,,,,,,,,,,,,,school,,,,,,,,,,,,,,,,,,,,,,,,,,,,,,,,,,,,,,,,,,,,,,,,École Catholique,,,,,,,,,,,,,,789373903,node,,,,,,,,,,,,,,,,,,,,,,,,,,,,,,,,,,
790833373,node,-4.347404,15.2321757,,,,,,,,,,,,,,,,,,,,,,,school,,,,,,,,,,,,,,,,,,,,,,,,,,,,,,,,,,,,,,,,,,,,,,,,Institut Wabakulu,,Wabakulu Institute,,,,,,,,,,,,790833373,node,,,,,,,,,,,,,,,,,,,,,,,,,,,,,,,,,,
803232064,node,-4.4298913,15.3716211,,,,,,,,,,,,,,,,,,,,,,,school,,,,,,,,,,,,,,,,,,,,,primary school,,,,,,,,,,,,,,,,,,,,,,,,,,,Centre Scolare Pingu II,,,,,,,,,,,,,,803232064,node,,,,,,,,,MSF survey 2016,,,,,,,,,,,,,,,,,,,,,,,,,
803246740,node,-4.4316456,15.3672222,,,,,,,,,,,,,,,,,,,,,,,school,,,,,,,,,,,,,,,,,,,,,,,,,,,,,,,,,,,,,,,,,,,,,,,,École,,,,,,,,,,,,,,803246740,node,,,,,,,,,MSF survey 2016,,,,,,,,,,,,,,,,,,,,,,,,,
803246748,node,-4.4319023,15.3678874,,,,,,,,,,,,,,,,,,,,,,,school,,,,,,,,,,,,,,,,,,,,,,,,,,,,,,,,,,,,,,,,,,,,,,,,École,,,,,,,,,,,,,,803246748,node,,,,,,,,,MSF survey 2016,,,,,,,,,,,,,,,,,,,,,,,,,
803246752,node,-4.4330361,15.3664712,,,,,,,,,,,,,,,,,,,,,,,school,,,,,,,,,,,,,,,,,,,,,primaire et professionel,,,,,,,,,,,,,,,,,,,,,,,,,,,Complexe scolaire Mère Theresa Tito,,,,,,,,,,,,Église catholique,,803246752,node,,,,,,,,,MSF survey 2016,,,,,,,,,,,,,,,,,,,,,,,,,
803265122,node,-4.4351755,15.3663457,,,,,,,,,,,,,,,,,,,,,,,school,,,,,,,,,,,,,,,,,,,,,,,,,,,,,,,,,,,,,,,,,,,,,,,,Complexe scolaire Bualu,,,,,,,,,,,,,,803265122,node,,,,,,,,,MSF survey 2016,,,,,,,,,,,,,,,,,,,,,,,,,
813748771,node,-4.3669125,15.3198048,,,,,,,,,,,,,,,,,,,,,,,school,,,,,,,,,,,,,,,,,,,,,,,,,,,,,,,,,,,,,,,,,,,,,,,,École privé,,,,,,,,,,,,,,813748771,node,,,,,,,,,,,,,,,,,,,,,,,,,,,,,,,,,,
822140614,node,-4.4202186,15.3915973,,,,,,,,,,,,,,,,,,,,,,,school,,,,,,,,,,,,,,,,,,,,,,,,,,,,,,,,,,,,,,,,,,,,,,,,Institut Kisantu,,,,,,,,,,,,,,822140614,node,,,,,,,,,MSF survey 2016,,,,,,,,,,,,,,,,,,,,,,,,,
822140618,node,-4.4197512,15.3904829,,,,,,,,,,,,,,,,,,,,,,,school,,,,,,,,,,,,,,,,,,,,,,,,,,,,,,,,,,,,,,,,,,,,,,,,École Toco 2,,,,,,,,,,,,,,822140618,node,,,,,,,,,MSF survey 2016,,,,,,,,,,,,,,,,,,,,,,,,,
829315038,node,-4.3685492,15.318766,,,,,,,,,,,,,,,,,,,,,,,school,,,,,,,,,,,,,,,,,,,,,,,,,,,,,,,,,,,,,,,,,,,,,,,,École,,,,,,,,,,,,,,829315038,node,,,,,,,,,,,,,,,,,,,,,,,,,,,,,,,,,,
934813665,node,-5.8878442,22.4486644,,,,,,,,,,,,,,,,,,,,,,,school,,,,,,,,,,,,,,,,,,,,,,,,,,,,,,,,,,,,,,,,,,,,,,,,Collège Saint-Louis,,,,,,,,,,,,,,934813665,node,,,,,,,,,,,,,,,,,,,,,,,,,,,,,,,,,,
934840866,node,-5.8910786,22.4171816,,,,,,,,,,,,,,,,,,,,,,,school,,,,,,,,,,,,,,,,,,,,,,,,,,,,,,,,,,,,,,,,,,,,,,,,Athénée,,,,,,,,,,,,,,934840866,node,,,,,,,,,,,,,,,,,,,,,,,,,,,,,,,,,,
944857352,node,-4.4046477,15.4070665,,,,,,,,,,,,,,,,,,,,,,,school,,,,,,,,,,,,,,,,,,,,,,,,"different schools, names and positions unclear",,,,,,,,,,,,,,,,,,,,,,,,École ITP Passio,,,,,,,,,,,,,,944857352,node,,,,,,,,,MSF survey 2016,,,,,,,,,,,,,,,,,,,,,,,,,
944861514,node,-4.4189146,15.3926001,,,,,,,,,,,,,,,,,,,,,,,school,,,,,,,,,,,,,,,,,,,,,primary school,,,,,,,,,,,,,,,,,,,,,,,,,,,Ecole Primaire Biyela,,,,,,,,,,,,,,944861514,node,,,,,primaire,,,,MSF survey 2016,,,,,,,,,,,,,,,,,,,,,,,,,
1146978927,node,-5.2516333,14.8625144,,,,,,,,,,,,,,,,,,,,,,,school,,,,,,,,,,,,,,,,,,,,,,,,,,,,,,,,,,,,,,,,,,,,,,,,Lycée Bankazi,,,,,,,,,,,,,,1146978927,node,,,,,,,,,,,,,,,,,,,,,,,,,,,,,,,,,,
1146978930,node,-5.2557255,14.855603,,,,,,,,,,,,,,,,,,,,,,,school,,,,,,,,,,,,,,,,,,,,,,,,,,,,,,,,,,,,,,,,,,,,,,,,École primaire Luzolo,,,,,,,,,,,,,,1146978930,node,,,,,,,,,,,,,,,,,,,,,,,,,,,,,,,,,,
1146978937,node,-5.258717,14.8593796,,,,,,,,,,,,,,,,,,,,,,,school,,,,,,,,,,,,,,,,,,,,,,,,,,,,,,,,,,,,,,,,,,,,,,,,LycéE Kivuvu,,,,,,,,,,,,,,1146978937,node,,,,,,,,,,,,,,,,,,,,,,,,,,,,,,,,,,
1146978942,node,-5.2551534,14.8640079,,Mbanza-Ngungu,,,,,,,,,,,,,,Concession protestante,,,,,,,school,,,,,,,,,,,,,,,,,,,,,,,,,,,,,,,,,,,,,,,,,,,,,,,,ITC BADIKA,,,,,,,,,,,,ArthanDesign,private,1146978942,node,,,,,,,,,,,,,,,,,,,,,,,,,,,,,,,,,,
1146978965,node,-5.2572415,14.8588099,,,,,,,,,,,,,,,,,,,,,,,school,,,,,,,,,,,,,,,,,,,,,,,,,,,,,,,,,,,,,,,,,,,,,,,,École primaire Kivuvu,,,,,,,,,,,,,,1146978965,node,,,,,,,,,,,,,,,,,,,,,,,,,,,,,,,,,,
1154230417,node,3.5995384,28.5749679,,,,,,,,,,,,,,,,,,,,,,,school,,,,,,,,,,,,,,,,,,,,,,,,,,,,,,,,,,,,,,,,,,,,,,,,Collège Wando,,,,,,,,,,,,,,1154230417,node,,,,,,,,,,,,,,,,,,,,,,,,,,,,,,,,,,
1197330647,node,-11.6994167,27.4848056,,,,,,,,,,,,,,,,,,,,,,,school,,«Ces données géographiques proviennent du Référentiel Géographique Commun (www.rgc.cd).»,,,,,,,,,,,,,,,,,,,,,,,,,,,,,,,,,,,,,,,,,,,,,,Ecole primaire Mapatano II,,,,,,,,,,,,,,1197330647,node,,,,,primaire,,,,GPS,,2010/04/21,,,,,,,,www.rgc.cd,,,,,,,,,,,,,,,
1197330648,node,-11.8230278,27.5875278,,,,,,,,,,,,,,,,,,,,,,,school,,«Ces données géographiques proviennent du Référentiel Géographique Commun (www.rgc.cd).»,,,,,,,,,,,,,,,,,,,,,,,,,,,,,,,,,,,,,,,,,,,,,,Ecole primaire Kamakanga,,,,,,,,,,,,,,1197330648,node,,,,,primaire,,,,GPS,,2010/04/21,,,,,,,,www.rgc.cd,,,,,,,,,,,,,,,
1197330652,node,-10.9740833,26.7079167,,,,,,,,,,,,,,,,,,,,,,,school,,«Ces données géographiques proviennent du Référentiel Géographique Commun (www.rgc.cd).»,,,,,,,,,,,,,,,,,,,,,,,,,,,,,,,,,,,,,,,,,,,,,,Ecole primaire Matayarisho 3,,,,,,,,,,,,,,1197330652,node,,,,,primaire,,,,GPS,,2010/04/21,,,,,,,,www.rgc.cd,,,,,,,,,,,,,,,
1197330653,node,-10.9625556,26.7234444,,,,,,,,,,,,,,,,,,,,,,,school,,«Ces données géographiques proviennent du Référentiel Géographique Commun (www.rgc.cd).»,,,,,,,,,,,,,,,,,,,,,,,,,,,,,,,,,,,,,,,,,,,,,,Ecole primaire Mumea,,,,,,,,,,,,,,1197330653,node,,,,,primaire,,,,GPS,,2010/04/21,,,,,,,,www.rgc.cd,,,,,,,,,,,,,,,
1197330656,node,-11.4733056,27.3861389,,,,,,,,,,,,,,,,,,,,,,,school,,«Ces données géographiques proviennent du Référentiel Géographique Commun (www.rgc.cd).»,,,,,,,,,,,,,,,,,,,,,,,,,,,,,,,,,,,,,,,,,,,,,,École primaire Tumbwe,,,,,,,,,,,,,,1197330656,node,,,,,primaire,,,,GPS,,2010/04/21,,,,,,,,www.rgc.cd,,,,,,,,,,,,,,,
1197330658,node,-11.949,27.5284444,,,,,,,,,,,,,,,,,,,,,,,school,,«Ces données géographiques proviennent du Référentiel Géographique Commun (www.rgc.cd).»,,,,,,,,,,,,,,,,,,,,,,,,,,,,,,,,,,,,,,,,,,,,,,École primaire Fikupa,,,,,,,,,,,,,,1197330658,node,,,,,primaire,,,,GPS,,2010/04/21,,,,,,,,www.rgc.cd,,,,,,,,,,,,,,,
1197330661,node,-11.6996667,27.4852778,,,,,,,,,,,,,,,,,,,,,,,school,,«Ces données géographiques proviennent du Référentiel Géographique Commun (www.rgc.cd).»,,,,,,,,,,,,,,,,,,,,,,,,,,,,,,,,,,,,,,,,,,,,,,École primaire Mapatano I,,,,,,,,,,,,,,1197330661,node,,,,,primaire,,,,GPS,,2010/04/21,,,,,,,,www.rgc.cd,,,,,,,,,,,,,,,
1197330662,node,-10.7866111,25.6186111,,,,,,,,,,,,,,,,,,,,,,,school,,«Ces données géographiques proviennent du Référentiel Géographique Commun (www.rgc.cd).»,,,,,,,,,,,,,,,,,,,,,,,,,,,,,,,,,,,,,,,,,,,,,,Ecole primaire Lumiere Du Christ,,,,,,,,,,,,,,1197330662,node,,,,,primaire,,,,GPS,,2010/04/21,,,,,,,,www.rgc.cd,,,,,,,,,,,,,,,
1197330668,node,-10.8508759,25.4513542,,,,,,,,,,,,,,,,,,,,,,,school,,«Ces données géographiques proviennent du Référentiel Géographique Commun (www.rgc.cd).»,,,,,,,,,,,,,,,,,,,,,,,,,,,,,,,,,,,,,,,,,,,,,,École primaire Lumière Du Christ 6,,,,,,,,,,,,,,1197330668,node,,,,,primaire,,,,GPS,,2010/04/21,,,,,,,,www.rgc.cd,,,,,,,,,,,,,,,
1197330670,node,-10.9826944,26.7688056,,,,,,,,,,,,,,,,,,,,,,,school,,«Ces données géographiques proviennent du Référentiel Géographique Commun (www.rgc.cd).»,,,,,,,,,,,,,,,,,,,,,,,,,,,,,,,,,,,,,,,,,,,,,,Ecole primaire Matendo I,,,,,,,,,,,,,,1197330670,node,,,,,primaire,,,,GPS,,2010/04/21,,,,,,,,www.rgc.cd,,,,,,,,,,,,,,,
1197330671,node,-11.6846667,27.4865,,,,,,,,,,,,,,,,,,,,,,,school,,«Ces données géographiques proviennent du Référentiel Géographique Commun (www.rgc.cd).»,,,,,,,,,,,,,,,,,,,,,,,,,,,,,,,,,,,,,,,,,,,,,,Ecole primaire Kamalondo III,,,,,,,,,,,,,,1197330671,node,,,,,primaire,,,,GPS,,2010/04/21,,,,,,,,www.rgc.cd,,,,,,,,,,,,,,,
1197330672,node,-11.7110833,27.4548889,,,,,,,,,,,,,,,,,,,,,,,school,,«Ces données géographiques proviennent du Référentiel Géographique Commun (www.rgc.cd).»,,,,,,,,,,,,,,,,,,,,,,,,,,,,,,,,,,,,,,,,,,,,,,Ecole primaire Ciboko,,,,,,,,,,,,,,1197330672,node,,,,,primaire,,,,GPS,,2010/04/21,,,,,,,,www.rgc.cd,,,,,,,,,,,,,,,
1197330674,node,-10.9863889,26.7937778,,,,,,,,,,,,,,,,,,,,,,,school,,«Ces données géographiques proviennent du Référentiel Géographique Commun (www.rgc.cd).»,,,,,,,,,,,,,,,,,,,,,,,,,,,,,,,,,,,,,,,,,,,,,,Ecole primaire Mwanzo,,,,,,,,,,,,,,1197330674,node,,,,,primaire,,,,GPS,,2010/04/21,,,,,,,,www.rgc.cd,,,,,,,,,,,,,,,
1197330675,node,-11.6504722,27.3256389,,,,,,,,,,,,,,,,,,,,,,,school,,«Ces données géographiques proviennent du Référentiel Géographique Commun (www.rgc.cd).»,,,,,,,,,,,,,,,,,,,,,,,,,,,,,,,,,,,,,,,,,,,,,,École primaire Mukoma,,,,,,,,,,,,,,1197330675,node,,,,,primaire,,,,GPS,,2010/04/21,,,,,,,,www.rgc.cd,,,,,,,,,,,,,,,
1197330676,node,-10.9605278,26.7325833,,,,,,,,,,,,,,,,,,,,,,,school,,«Ces données géographiques proviennent du Référentiel Géographique Commun (www.rgc.cd).»,,,,,,,,,,,,,,,,,,,,,,,,,,,,,,,,,,,,,,,,,,,,,,École primaire Nuru,,,,,,,,,,,,,,1197330676,node,,,,,primaire,,,,GPS,,2010/04/21,,,,,,,,www.rgc.cd,,,,,,,,,,,,,,,
1197330681,node,-10.9871389,26.7807778,,,,,,,,,,,,,,,,,,,,,,,school,,«Ces données géographiques proviennent du Référentiel Géographique Commun (www.rgc.cd).»,,,,,,,,,,,,,,,,,,,,,,,,,,,,,,,,,,,,,,,,,,,,,,École primaire Vumilia,,,,,,,,,,,,,,1197330681,node,,,,,primaire,,,,GPS,,2010/04/21,,,,,,,,www.rgc.cd,,,,,,,,,,,,limited,,,
1197330682,node,-11.70625,27.4837222,,,,,,,,,,,,,,,,,,,,,,,school,,«Ces données géographiques proviennent du Référentiel Géographique Commun (www.rgc.cd).»,,,,,,,,,,,,,,,,,,,,,,,,,,,,,,,,,,,,,,,,,,,,,,École primaire Maua,,,,,,,,,,,,,,1197330682,node,,,,,primaire,,,,GPS,,2010/04/21,,,,,,,,www.rgc.cd,,,,,,,,,,,,,,,
1197330687,node,-11.697,27.4754722,,,,,,,,,,,,,,,,,,,,,,,school,,«Ces données géographiques proviennent du Référentiel Géographique Commun (www.rgc.cd).»,,,,,,,,,,,,,,,,,,,,,,,,,,,,,,,,,,,,,,,,,,,,,,Ecole primaire Daima,,,,,,,,,,,,,,1197330687,node,,,,,primaire,,,,GPS,,2010/04/21,,,,,,,,www.rgc.cd,,,,,,,,,,,,,,,
1197330688,node,-10.96225,25.4619722,,,,,,,,,,,,,,,,,,,,,,,school,,«Ces données géographiques proviennent du Référentiel Géographique Commun (www.rgc.cd).»,,,,,,,,,,,,,,,,,,,,,,,,,,,,,,,,,,,,,,,,,,,,,,Ecole primaire Lumiere Du Christ 1,,,,,,,,,,,,,,1197330688,node,,,,,primaire,,,,GPS,,2010/04/21,,,,,,,,www.rgc.cd,,,,,,,,,,,,,,,
1197330689,node,-10.9816111,26.7069722,,,,,,,,,,,,,,,,,,,,,,,school,,«Ces données géographiques proviennent du Référentiel Géographique Commun (www.rgc.cd).»,,,,,,,,,,,,,,,,,,,,,,,,,,,,,,,,,,,,,,,,,,,,,,Ecole primaire Nuru Ya Lwanga,,,,,,,,,,,,,,1197330689,node,,,,,primaire,,,,GPS,,2010/04/21,,,,,,,,www.rgc.cd,,,,,,,,,,,,,,,
1197330693,node,-11.7061389,27.4835833,,,,,,,,,,,,,,,,,,,,,,,school,,«Ces données géographiques proviennent du Référentiel Géographique Commun (www.rgc.cd).»,,,,,,,,,,,,,,,,,,,,,,,,,,,,,,,,,,,,,,,,,,,,,,Ecole primaire Amani,,,,,,,,,,,,,,1197330693,node,,,,,primaire,,,,GPS,,2010/04/21,,,,,,,,www.rgc.cd,,,,,,,,,,,,,,,
1197330694,node,-11.6958665,27.4756719,,,,,,,,,,,,,,,,,,,,,,,school,,«Ces données géographiques proviennent du Référentiel Géographique Commun (www.rgc.cd).»,,,,,,,,,,,,,,,,,,,,,,,,,,,,,,,,,,,,,,,,,,,,,,École primaire Mampala,,,,,,,,,,,,,,1197330694,node,,,,,primaire,,,,GPS,,2010/04/21,,,,,,,,www.rgc.cd,,,,,,,,,,,,,,,
1197330697,node,-10.9699722,26.72675,,,,,,,,,,,,,,,,,,,,,,,school,,«Ces données géographiques proviennent du Référentiel Géographique Commun (www.rgc.cd).»,,,,,,,,,,,,,,,,,,,,,,,,,,,,,,,,,,,,,,,,,,,,,,Ecole primaire Tupendane,,,,,,,,,,,,,,1197330697,node,,,,,primaire,,,,GPS,,2010/04/21,,,,,,,,www.rgc.cd,,,,,,,,,,,,,,,
1197330698,node,-11.7590278,27.5639444,,,,,,,,,,,,,,,,,,,,,,,school,,«Ces données géographiques proviennent du Référentiel Géographique Commun (www.rgc.cd).»,,,,,,,,,,,,,,,,,,,,,,,,,,,,,,,,,,,,,,,,,,,,,,Ecole primaire Butungwa,,,,,,,,,,,,,,1197330698,node,,,,,primaire,,,,GPS,,2010/04/21,,,,,,,,www.rgc.cd,,,,,,,,,,,,,,,
1197330701,node,-10.8020556,25.4793333,,,,,,,,,,,,,,,,,,,,,,,school,,«Ces données géographiques proviennent du Référentiel Géographique Commun (www.rgc.cd).»,,,,,,,,,,,,,,,,,,,,,,,,,,,,,,,,,,,,,,,,,,,,,,École primaire Mangi,,,,,,,,,,,,,,1197330701,node,,,,,primaire,,,,GPS,,2010/04/21,,,,,,,,www.rgc.cd,,,,,,,,,,,,,,,
1197330703,node,-10.983238,26.7677504,,,,,,,,,,,,,,,,,,,,,,,school,,«Ces données géographiques proviennent du Référentiel Géographique Commun (www.rgc.cd).»,,,,,,,,,,,,,,,,,,,,,,,,,,,,,,,,,,,,,,,,,,,,,,Ecole primaire Bahati II,,,,,,,,,,,,,,1197330703,node,,,,,primaire,,,,GPS,,2010/04/21,,,,,,,,www.rgc.cd,,,,,,,,,,,,,,,
1197330705,node,-11.6805278,27.4854444,,,,,,,,,,,,,,,,,,,,,,,school,,«Ces données géographiques proviennent du Référentiel Géographique Commun (www.rgc.cd).»,,,,,,,,,,,,,,,,,,,,,,,,,,,,,,,,,,,,,,,,,,,,,,Ecole primaire Kamalondo I,,,,,,,,,,,,,,1197330705,node,,,,,primaire,,,,GPS,,2010/04/21,,,,,,,,www.rgc.cd,,,,,,,,,,,,,,,
1197330706,node,-11.6917732,27.479245,,,,,,,,,,,,,,,,,,,,,,,school,,«Ces données géographiques proviennent du Référentiel Géographique Commun (www.rgc.cd).»,,,,,,,,,,,,,,,,,,,,,,,,,,,,,,,,,,,,,,,,,,,,,,Ecole primaire Mapinduzi I,,,,,,,,,,,,,,1197330706,node,,,,,primaire,,,,GPS,,2010/04/21,,,,,,,,www.rgc.cd,,,,,,,,,,,,,,,
1197330708,node,-10.9691111,26.7118889,,,,,,,,,,,,,,,,,,,,,,,school,,«Ces données géographiques proviennent du Référentiel Géographique Commun (www.rgc.cd).»,,,,,,,,,,,,,,,,,,,,,,,,,,,,,,,,,,,,,,,,,,,,,,École primaire St Bartelemy,,,,,,,,,,,,,,1197330708,node,,,,,primaire,,,,GPS,,2010/04/21,,,,,,,,www.rgc.cd,,,,,,,,,,,,,,,
1197330709,node,-11.6798889,27.4853056,,,,,,,,,,,,,,,,,,,,,,,school,,«Ces données géographiques proviennent du Référentiel Géographique Commun (www.rgc.cd).»,,,,,,,,,,,,,,,,,,,,,,,,,,,,,,,,,,,,,,,,,,,,,,Ecole primaire Kamalondo II,,,,,,,,,,,,,,1197330709,node,,,,,primaire,,,,GPS,,2010/04/21,,,,,,,,www.rgc.cd,,,,,,,,,,,,,,,
1197330712,node,-11.7395237,27.5639854,,,,,,,,,,,,,,,,,,,,,,,school,,«Ces données géographiques proviennent du Référentiel Géographique Commun (www.rgc.cd).»,,,,,,,,,,,,,,,,,,,,,,,,,,,,,,,,,,,,,,,,,,,,,,École primaire Shibukeni,,,,,,,,,,,,,,1197330712,node,,,,,primaire,,,,GPS,,2010/04/21,,,,,,,,www.rgc.cd,,,,,,,,,,,,,,,
1197330714,node,-10.9882222,26.7750556,,,,,,,,,,,,,,,,,,,,,,,school,,«Ces données géographiques proviennent du Référentiel Géographique Commun (www.rgc.cd).»,,,,,,,,,,,,,,,,,,,,,,,,,,,,,,,,,,,,,,,,,,,,,,Ecole primaire Kilubula,,,,,,,,,,,,,,1197330714,node,,,,,primaire,,,,GPS,,2010/04/21,,,,,,,,www.rgc.cd,,,,,,,,,,,,,,,
1197330715,node,-10.94325,26.9581944,,,,,,,,,,,,,,,,,,,,,,,school,,«Ces données géographiques proviennent du Référentiel Géographique Commun (www.rgc.cd).»,,,,,,,,,,,,,,,,,,,,,,,,,,,,,,,,,,,,,,,,,,,,,,Ecole primaire Lwafu,,,,,,,,,,,,,,1197330715,node,,,,,primaire,,,,GPS,,2010/04/21,,,,,,,,www.rgc.cd,,,,,,,,,,,,,,,
1197330719,node,-11.84875,27.5606111,,,,,,,,,,,,,,,,,,,,,,,school,,«Ces données géographiques proviennent du Référentiel Géographique Commun (www.rgc.cd).»,,,,,,,,,,,,,,,,,,,,,,,,,,,,,,,,,,,,,,,,,,,,,,École primaire Mikombo,,,,,,,,,,,,,,1197330719,node,,,,,primaire,,,,GPS,,2010/04/21,,,,,,,,www.rgc.cd,,,,,,,,,,,,,,,
1197330720,node,-12.2509722,27.6428611,,,,,,,,,,,,,,,,,,,,,,,school,,«Ces données géographiques proviennent du Référentiel Géographique Commun (www.rgc.cd).»,,,,,,,,,,,,,,,,,,,,,,,,,,,,,,,,,,,,,,,,,,,,,,Ecole primaire Luboto 2,,,,,,,,,,,,,,1197330720,node,,,,,primaire,,,,GPS,,2010/04/21,,,,,,,,www.rgc.cd,,,,,,,,,,,,,,,
1197330722,node,-11.6915556,27.4794444,,,,,,,,,,,,,,,,,,,,,,,school,,«Ces données géographiques proviennent du Référentiel Géographique Commun (www.rgc.cd).»,,,,,,,,,,,,,,,,,,,,,,,,,,,,,,,,,,,,,,,,,,,,,,Ecole primaire Mapinduzi II,,,,,,,,,,,,,,1197330722,node,,,,,primaire,,,,GPS,,2010/04/21,,,,,,,,www.rgc.cd,,,,,,,,,,,,,,,
1197330723,node,-10.656,25.7036667,,,,,,,,,,,,,,,,,,,,,,,school,,«Ces données géographiques proviennent du Référentiel Géographique Commun (www.rgc.cd).»,,,,,,,,,,,,,,,,,,,,,,,,,,,,,,,,,,,,,,,,,,,,,,École primaire Dilungu,,,,,,,,,,,,,,1197330723,node,,,,,primaire,,,,GPS,,2010/04/21,,,,,,,,www.rgc.cd,,,,,,,,,,,,,,,
1197330724,node,-10.7745,25.54625,,,,,,,,,,,,,,,,,,,,,,,school,,«Ces données géographiques proviennent du Référentiel Géographique Commun (www.rgc.cd).»,,,,,,,,,,,,,,,,,,,,,,,,,,,,,,,,,,,,,,,,,,,,,,Ecole primaire Uhuru,,,,,,,,,,,,,,1197330724,node,,,,,primaire,,,,GPS,,2010/04/21,,,,,,,,www.rgc.cd,,,,,,,,,,,,,,,
1197330728,node,-10.9740833,26.7103611,,,,,,,,,,,,,,,,,,,,,,,school,,«Ces données géographiques proviennent du Référentiel Géographique Commun (www.rgc.cd).»,,,,,,,,,,,,,,,,,,,,,,resurvey,,,,,,,,,,,,,,,,,,,,,,,,Ecole primaire Nyota,,,,,,,,,,,,,,1197330728,node,,,,,primaire,,,,GPS,,2010/04/21,,,,,,,,www.rgc.cd,,,,,,,,,,,,,,,
1197330729,node,-11.7110833,27.4555,,,,,,,,,,,,,,,,,,,,,,,school,,«Ces données géographiques proviennent du Référentiel Géographique Commun (www.rgc.cd).»,,,,,,,,,,,,,,,,,,,,,,,,,,,,,,,,,,,,,,,,,,,,,,Ecole primaire Mapenzi,,,,,,,,,,,,,,1197330729,node,,,,,primaire,,,,GPS,,2010/04/21,,,,,,,,www.rgc.cd,,,,,,,,,,,,,,,
1197330731,node,-11.6903611,27.4818611,,,,,,,,,,,,,,,,,,,,,,,school,,«Ces données géographiques proviennent du Référentiel Géographique Commun (www.rgc.cd).»,,,,,,,,,,,,,,,,,,,,,,,,,,,,,,,,,,,,,,,,,,,,,,École primaire Tuelimishe,,,,,,,,,,,,,,1197330731,node,,,,,primaire,,,,GPS,,2010/04/21,,,,,,,,www.rgc.cd,,,,,,,,,,,,,,,
1197330734,node,-11.7016111,27.4505833,,,,,,,,,,,,,,,,,,,,,,,school,,«Ces données géographiques proviennent du Référentiel Géographique Commun (www.rgc.cd).»,,,,,,,,,,,,,,,,,,,,,,,,,,,,,,,,,,,,,,,,,,,,,,Ecole primaire Kisima,,,,,,,,,,,,,,1197330734,node,,,,,primaire,,,,GPS,,2010/04/21,,,,,,,,www.rgc.cd,,,,,,,,,,,,,,,
1197330735,node,-11.5484167,27.3265556,,,,,,,,,,,,,,,,,,,,,,,school,,«Ces données géographiques proviennent du Référentiel Géographique Commun (www.rgc.cd).»,,,,,,,,,,,,,,,,,,,,,,,,,,,,,,,,,,,,,,,,,,,,,,Ecole primaire Kipopo,,,,,,,,,,,,,,1197330735,node,,,,,primaire,,,,GPS,,2010/04/21,,,,,,,,www.rgc.cd,,,,,,,,,,,,,,,
1197330738,node,-10.9817778,26.7030556,,,,,,,,,,,,,,,,,,,,,,,school,,«Ces données géographiques proviennent du Référentiel Géographique Commun (www.rgc.cd).»,,,,,,,,,,,,,,,,,,,,,,,,,,,,,,,,,,,,,,,,,,,,,,Ecole primaire Shindama,,,,,,,,,,,,,,1197330738,node,,,,,primaire,,,,GPS,,2010/04/21,,,,,,,,www.rgc.cd,,,,,,,,,,,,,,,
1197330740,node,-11.1806389,27.0126667,,,,,,,,,,,,,,,,,,,,,,,school,,«Ces données géographiques proviennent du Référentiel Géographique Commun (www.rgc.cd).»,,,,,,,,,,,,,,,,,,,,,,,,,,,,,,,,,,,,,,,,,,,,,,Ecole primaire Lubusha,,,,,,,,,,,,,,1197330740,node,,,,,primaire,,,,GPS,,2010/04/21,,,,,,,,www.rgc.cd,,,,,,,,,,,,,,,
1197330744,node,-12.0821111,27.5125556,,,,,,,,,,,,,,,,,,,,,,,school,,«Ces données géographiques proviennent du Référentiel Géographique Commun (www.rgc.cd).»,,,,,,,,,,,,,,,,,,,,,,,,,,,,,,,,,,,,,,,,,,,,,,École primaire Luboto 1,,,,,,,,,,,,,,1197330744,node,,,,,primaire,,,,GPS,,2010/04/21,,,,,,,,www.rgc.cd,,,,,,,,,,,,,,,
1197330745,node,-11.6888889,27.4882222,,,,,,,,,,,,,,,,,,,,,,,school,,«Ces données géographiques proviennent du Référentiel Géographique Commun (www.rgc.cd).»,,,,,,,,,,,,,,,,,,,,,,,,,,,,,,,,,,,,,,,,,,,,,,École primaire Ubupalo,,,,,,,,,,,,,,1197330745,node,,,,,primaire,,,,GPS,,2010/04/21,,,,,,,,www.rgc.cd,,,,,,,,,,,,,,,
1197330746,node,-11.6754167,27.4943056,,,,,,,,,,,,,,,,,,,,,,,school,,«Ces données géographiques proviennent du Référentiel Géographique Commun (www.rgc.cd).»,,,,,,,,,,,,,,,,,,,,,,,,,,,,,,,,,,,,,,,,,,,,,,Ecole primaire Vangu I,,,,,,,,,,,,,,1197330746,node,,,,,primaire,,,,GPS,,2010/04/21,,,,,,,,www.rgc.cd,,,,,,,,,,,,,,,
1197330750,node,-10.7793056,25.7076667,,,,,,,,,,,,,,,,,,,,,,,school,,«Ces données géographiques proviennent du Référentiel Géographique Commun (www.rgc.cd).»,,,,,,,,,,,,,,,,,,,,,,,,,,,,,,,,,,,,,,,,,,,,,,Ecole primaire Imani,,,,,,,,,,,,,,1197330750,node,,,,,primaire,,,,GPS,,2010/04/21,,,,,,,,www.rgc.cd,,,,,,,,,,,,,,,
1197334605,node,-10.9734167,26.711,,,,,,,,,,,,,,,,,,,,,,,school,,«Ces données géographiques proviennent du Référentiel Géographique Commun (www.rgc.cd).»,,,,,,,,,,,,,,,,,,,,,,,,,,,,,,,,,,,,,,,,,,,,,,Ecole primaire Bahati I,,,,,,,,,,,,,,1197334605,node,,,,,primaire,,,,GPS,,2010/04/21,,,,,,,,www.rgc.cd,,,,,,,,,,,,,,,
1197334632,node,-11.6819722,27.4838889,,,,,,,,,,,,,,,,,,,,,,,school,,«Ces données géographiques proviennent du Référentiel Géographique Commun (www.rgc.cd).»,,,,,,,,,,,,,,,,,,,,,,,,,,,,,,,,,,,,,,,,,,,,,,Ecole primaire Masikilizano,,,,,,,,,,,,,,1197334632,node,,,,,primaire,,,,GPS,,2010/04/21,,,,,,,,www.rgc.cd,,,,,,,,,,,,,,,
1197334636,node,-11.7007095,27.4795042,,,,,,,,,,,,,,,,,,,,,,Ecole primaire Ste Jeanne d'Arc,school,,«Ces données géographiques proviennent du Référentiel Géographique Commun (www.rgc.cd).»,,,,,,,,,,,,,,,,,,,,,,,,,,,,,,,,,,,,,,,,,,,,,,Ecole primaire Ushujaa II,,,,,,,,,,,,,,1197334636,node,,,,,primaire,,,,GPS,,2010/04/21,,,,,,,,www.rgc.cd,,,,,,,,,,,,,,,
1197334668,node,-11.0445278,26.9541389,,,,,,,,,,,,,,,,,,,,,,,school,,«Ces données géographiques proviennent du Référentiel Géographique Commun (www.rgc.cd).»,,,,,,,,,,,,,,,,,,,,,,,,,,,,,,,,,,,,,,,,,,,,,,Ecole primaire Mwana Kulema,,,,,,,,,,,,,,1197334668,node,,,,,primaire,,,,GPS,,2010/04/21,,,,,,,,www.rgc.cd,,,,,,,,,,,,,,,
1197334671,node,-11.6238056,27.6410278,,,,,,,,,,,,,,,,,,,,,,,school,,«Ces données géographiques proviennent du Référentiel Géographique Commun (www.rgc.cd).»,,,,,,,,,,,,,,,,,,,,,,,,,,,,,,,,,,,,,,,,,,,,,,École primaire Kikwanda,,,,,,,,,,,,,,1197334671,node,,,,,primaire,,,,GPS,,2010/04/21,,,,,,,,www.rgc.cd,,,,,,,,,,,,,,,
1197334675,node,-10.7249444,25.5620556,,,,,,,,,,,,,,,,,,,,,,,school,,«Ces données géographiques proviennent du Référentiel Géographique Commun (www.rgc.cd).»,,,,,,,,,,,,,,,,,,,,,,,,,,,,,,,,,,,,,,,,,,,,,,Ecole primaire Kazembe,,,,,,,,,,,,,,1197334675,node,,,,,primaire,,,,GPS,,2010/04/21,,,,,,,,www.rgc.cd,,,,,,,,,,,,,,,
1197334701,node,-11.1247778,27.1006111,,,,,,,,,,,,,,,,,,,,,,,school,,«Ces données géographiques proviennent du Référentiel Géographique Commun (www.rgc.cd).»,,,,,,,,,,,,,,,,,,,,,,,,,,,,,,,,,,,,,,,,,,,,,,Ecole primaire Katanga,,,,,,,,,,,,,,1197334701,node,,,,,primaire,,,,GPS,,2010/04/21,,,,,,,,www.rgc.cd,,,,,,,,,,,,,,,
1197334711,node,-11.7000145,27.4791508,,,,,,,,,,,,,,,,,,,,,,,school,,«Ces données géographiques proviennent du Référentiel Géographique Commun (www.rgc.cd).»,,,,,,,,,,,,,,,,,,,,,,,,,,,,,,,,,,,,,,,,,,,,,,Ecole primaire Vangu II,,,,,,,,,,,,,,1197334711,node,,,,,primaire,,,,GPS,,2010/04/21,,,,,,,,www.rgc.cd,,,,,,,,,,,,,,,
1197334740,node,-11.1600556,25.4511944,,,,,,,,,,,,,,,,,,,,,,,school,,«Ces données géographiques proviennent du Référentiel Géographique Commun (www.rgc.cd).»,,,,,,,,,,,,,,,,,,,,,,,,,,,,,,,,,,,,,,,,,,,,,,École primaire Mushima 1,,,,,,,,,,,,,,1197334740,node,,,,,primaire,,,,GPS,,2010/04/21,,,,,,,,www.rgc.cd,,,,,,,,,,,,,,,
1197334744,node,-10.9572778,26.727,,,,,,,,,,,,,,,,,,,,,,,school,,«Ces données géographiques proviennent du Référentiel Géographique Commun (www.rgc.cd).»,,,,,,,,,,,,,,,,,,,,,,,,,,,,,,,,,,,,,,,,,,,,,,Ecole primaire Huruma,,,,,,,,,,,,,,1197334744,node,,,,,primaire,,,,GPS,,2010/04/21,,,,,,,,www.rgc.cd,,,,,,,,,,,,,,,
1197334751,node,-11.7131389,27.4555,,,,,,,,,,,,,,,,,,,,,,,school,,«Ces données géographiques proviennent du Référentiel Géographique Commun (www.rgc.cd).»,,,,,,,,,,,,,,,,,,,,,,,,,,,,,,,,,,,,,,,,,,,,,,Ecole primaire Kisaho,,,,,,,,,,,,,,1197334751,node,,,,,primaire,,,,GPS,,2010/04/21,,,,,,,,www.rgc.cd,,,,,,,,,,,,,,,
1197334768,node,-11.7624722,27.361,,,,,,,,,,,,,,,,,,,,,,,school,,«Ces données géographiques proviennent du Référentiel Géographique Commun (www.rgc.cd).»,,,,,,,,,,,,,,,,,,,,,,,,,,,,,,,,,,,,,,,,,,,,,,Ecole primaire Kinandu,,,,,,,,,,,,,,1197334768,node,,,,,primaire,,,,GPS,,2010/04/21,,,,,,,,www.rgc.cd,,,,,,,,,,,,,,,
1197334774,node,-10.9828056,26.7301944,,,,,,,,,,,,,,,,,,,,,,,school,,«Ces données géographiques proviennent du Référentiel Géographique Commun (www.rgc.cd).»,,,,,,,,,,,,,,,,,,,,,,,,,,,,,,,,,,,,,,,,,,,,,,Ecole primaire Bilima,,,,,,,,,,,,,,1197334774,node,,,,,primaire,,,,GPS,,2010/04/21,,,,,,,,www.rgc.cd,,,,,,,,,,,,,,,
1197334778,node,-10.9814722,26.7220556,,,,,,,,,,,,,,,,,,,,,,,school,,«Ces données géographiques proviennent du Référentiel Géographique Commun (www.rgc.cd).»,,,,,,,,,,,,,,,,,,,,,,,,,,,,,,,,,,,,,,,,,,,,,,Ecole primaire Mavuno I,,,,,,,,,,,,,,1197334778,node,,,,,primaire,,,,GPS,,2010/04/21,,,,,,,,www.rgc.cd,,,,,,,,,,,,,,,
1197334798,node,-11.7370278,27.5639444,,,,,,,,,,,,,,,,,,,,,,,school,,«Ces données géographiques proviennent du Référentiel Géographique Commun (www.rgc.cd).»,,,,,,,,,,,,,,,,,,,,,,,,,,,,,,,,,,,,,,,,,,,,,,Ecole primaire Maranatha,,,,,,,,,,,,,,1197334798,node,,,,,primaire,,,,GPS,,2010/04/21,,,,,,,,www.rgc.cd,,,,,,,,,,,,,,,
1197334802,node,-11.6452778,27.4821944,,,,,,,,,,,,,,,,,,,,,,,school,,«Ces données géographiques proviennent du Référentiel Géographique Commun (www.rgc.cd).»,,,,,,,,,,,,,,,,,,,,,,,,,,,,,,,,,,,,,,,,,,,,,,Ecole primaire Kalubwe II,,,,,,,,,,,,,,1197334802,node,,,,,primaire,,,,GPS,,2010/04/21,,,,,,,,www.rgc.cd,,,,,,,,,,,,,,,
1197334805,node,-10.7811111,25.7453611,,,,,,,,,,,,,,,,,,,,,,,school,,«Ces données géographiques proviennent du Référentiel Géographique Commun (www.rgc.cd).»,,,,,,,,,,,,,,,,,,,,,,,,,,,,,,,,,,,,,,,,,,,,,,Ecole primaire Mwongo,,,,,,,,,,,,,,1197334805,node,,,,,primaire,,,,GPS,,2010/04/21,,,,,,,,www.rgc.cd,,,,,,,,,,,,,,,
1197334823,node,-11.0040556,26.7955,,,,,,,,,,,,,,,,,,,,,,,school,,«Ces données géographiques proviennent du Référentiel Géographique Commun (www.rgc.cd).»,,,,,,,,,,,,,,,,,,,,,,,,,,,,,,,,,,,,,,,,,,,,,,École primaire Usamani,,,,,,,,,,,,,,1197334823,node,,,,,primaire,,,,GPS,,2010/04/21,,,,,,,,www.rgc.cd,,,,,,,,,,,,,,,
1197334824,node,-11.7038056,27.4875556,,,,,,,,,,,,,,,,,,,,,,,school,,,,,,,,,,,,,,,,,,,,,,,,,,,,,,,,,,,,,,,,,,,,,,,,Ecole primaire Zamiri,,,,,,,,,,,,,,1197334824,node,,,,,primaire,,,,survey,,03_2014,,,,,,,,,,,,,,,,,,,,,,,
1197334827,node,-11.6999167,27.4853889,,,,,,,,,,,,,,,,,,,,,,,school,,«Ces données géographiques proviennent du Référentiel Géographique Commun (www.rgc.cd).»,,,,,,,,,,,,,,,,,,,,,,,,,,,,,,,,,,,,,,,,,,,,,,École primaire Nyota Ya Taifa,,,,,,,,,,,,,,1197334827,node,,,,,primaire,,,,GPS,,2010/04/21,,,,,,,,www.rgc.cd,,,,,,,,,,,,,,,
1197334857,node,-10.94325,26.9599167,,,,,,,,,,,,,,,,,,,,,,,school,,«Ces données géographiques proviennent du Référentiel Géographique Commun (www.rgc.cd).»,,,,,,,,,,,,,,,,,,,,,,,,,,,,,,,,,,,,,,,,,,,,,,Ecole primaire Songa Songa,,,,,,,,,,,,,,1197334857,node,,,,,primaire,,,,GPS,,2010/04/21,,,,,,,,www.rgc.cd,,,,,,,,,,,,,,,
1207660242,node,3.7771667,19.055,,,,,,,,,,,,,,,,,,,,,,,school,,«Ces données géographiques proviennent du Référentiel Géographique Commun (www.rgc.cd).»,,,,,,,,,,,,,,,,,,,,,,,,,,,,,,,,,,,,,,,,,,,,,,Ecole primaire Lua Bolo,,,,,,,,,,,,,,1207660242,node,,,,,primaire,,,,GPS,,2010/04/21,,,,,,,,www.rgc.cd,,,,,,,,,,,,,,,
1207660247,node,0.0513948,18.2747803,,,,,,,,,,,,,,,,,,,,,,Ecole primaire Lisanga,school,,«Ces données géographiques proviennent du Référentiel Géographique Commun (www.rgc.cd).»,,,,,,,,,,,,,,,,,,,,,,,,,,,,,,Equateur,Mbandaka,Mbandaka,,Mbandaka 2,,,,,,,,,,,,EP Lisanga,,,,,,,,,,,,,religious,1207660247,node,,,,,,,,,GPS,,,,,,,,,,www.rgc.cd,,,,,,,,,,,,,,,
1207660266,node,4.3442222,18.7921944,,,,,,,,,,,,,,,,,,,,,,,school,,«Ces données géographiques proviennent du Référentiel Géographique Commun (www.rgc.cd).»,,,,,,,,,,,,,,,,,,,,,,,,,,,,,,,,,,,,,,,,,,,,,,Ecole primaire Mole,,,,,,,,,,,,,,1207660266,node,,,,,primaire,,,,GPS,,2010/04/21,,,,,,,,www.rgc.cd,,,,,,,,,,,,,,,
1207660268,node,3.7206667,18.7736111,,,,,,,,,,,,,,,,,,,,,,,school,,«Ces données géographiques proviennent du Référentiel Géographique Commun (www.rgc.cd).»,,,,,,,,,,,,,,,,,,,,,,,,,,,,,,,,,,,,,,,,,,,,,,Ecole primaire Ngombe Poswa,,,,,,,,,,,,,,1207660268,node,,,,,primaire,,,,GPS,,2010/04/21,,,,,,,,www.rgc.cd,,,,,,,,,,,,,,,
1207660273,node,-0.7884922,18.2820391,,,,,,,,,,,,,,,,,,,,,,,school,,«Ces données géographiques proviennent du Référentiel Géographique Commun (www.rgc.cd).»,,,,,,,,,,,,,,,,,,,,,,,,,,,,,,,,,,,,,,,,,,,,,,École primaire Mpenda Moheli,,,,,,,,,,,,,,1207660273,node,,,,,,,,,GPS,,2010/04/21,,,,,,,,www.rgc.cd,,,,,,,,,,,,,,,
1207660285,node,0.0105446,18.3166368,,,,,,,,,,,,,,,,,,,,,,Ecole primaire Nsong' Watala,school,,«Ces données géographiques proviennent du Référentiel Géographique Commun (www.rgc.cd).»,,,,,,,,,,,,,,,,,,,,,,,,,,,,,,Equateur,Mbandaka,Mbandaka,,Mbandaka 2,,,,,,,,,,,,EP Nsongwatala,,,,,,,,,,,,,religious,1207660285,node,,,,,,,,,GPS,,2010/04/21,,,,,,,,www.rgc.cd,,,,,,,,,,,,,,,
1207660289,node,3.2242778,19.2933333,,,,,,,,,,,,,,,,,,,,,,,school,,«Ces données géographiques proviennent du Référentiel Géographique Commun (www.rgc.cd).»,,,,,,,,,,,,,,,,,,,,,,,,,,,,,,,,,,,,,,,,,,,,,,Ecole primaire Bogbadono,,,,,,,,,,,,,,1207660289,node,,,,,primaire,,,,GPS,,2010/04/21,,,,,,,,www.rgc.cd,,,,,,,,,,,,,,,
1207660301,node,-0.8315833,18.14175,,,,,,,,,,,,,,,,,,,,,,,school,,«Ces données géographiques proviennent du Référentiel Géographique Commun (www.rgc.cd).»,,,,,,,,,,,,,,,,,,,,,,Réviser la localisation,,,,,,,,,,,,,,,,,,,,,,,,Ecole primaire Bokandja,,,,,,,,,,,,,,1207660301,node,,,,,primaire,,,,GPS,,2010/04/21,,,,,,,,www.rgc.cd,,,,,,,,,,,,,,,
1207660304,node,-0.0222222,18.2036111,,,,,,,,,,,,,,,,,,,,,,,school,,«Ces données géographiques proviennent du Référentiel Géographique Commun (www.rgc.cd).»,,,,,,,,,,,,,,,,,,,,,,,,,,,,,,,,,,,,,,,,,,,,,,Ecole primaire Lolango,,,,,,,,,,,,,,1207660304,node,,,,,primaire,,,,GPS,,2010/04/21,,,,,,,,www.rgc.cd,,,,,,,,,,,,,,,
1207660310,node,-0.7645206,18.2873733,,,,,,,,,,,,,,,,,,,,,,Ecole primaire Toyokana Momboyo,school,,«Ces données géographiques proviennent du Référentiel Géographique Commun (www.rgc.cd).»,,,,,,,,,,,,,,,,,,,,,,,,,,,,,,Equateur,Bikoro,Lac Ntomba,,Bikoro,,,,,,,,,,,,École primaire Toyokana,,,,,,,,,,,,,religious,1207660310,node,,,,,,,,,GPS,,2010/04/21,,,,,,,,www.rgc.cd,,,,,,,,,,,,,,,
1207660333,node,0.0311134,18.2752816,,,,,,,,,,,,,,,,,,,,,,Ecole primaire Salongo 2,school,,«Ces données géographiques proviennent du Référentiel Géographique Commun (www.rgc.cd).»,,,,,,,,,,,,,,,,,,,,,,,,,,,,,,Equateur,Mbandaka,Mbandaka,,Mbandaka 2,,,,,,,,,,,,EP2 Salongo,,,,,,,,,,,,,religious,1207660333,node,,,,,,,,,GPS,,,,,,,,,,www.rgc.cd,,,,,,,,,,,,,,,
1207660336,node,3.3236944,19.4068889,,,,,,,,,,,,,,,,,,,,,,,school,,«Ces données géographiques proviennent du Référentiel Géographique Commun (www.rgc.cd).»,,,,,,,,,,,,,,,,,,,,,,,,,,,,,,,,,,,,,,,,,,,,,,École primaire Kpindima,,,,,,,,,,,,,,1207660336,node,,,,,primaire,,,,GPS,,2010/04/21,,,,,,,,www.rgc.cd,,,,,,,,,,,,,,,
1207660343,node,0.045843,18.2654281,,,,,,,,,,,,,,,,,,,,,,Ecole primaire Bokombodji,school,,«Ces données géographiques proviennent du Référentiel Géographique Commun (www.rgc.cd).»,,,,,,,,,,,,,,,,,,,,,,,,,,,,,,Equateur,Mbandaka,Mbandaka,,Mbandaka 2,,,,,,,,,,,,EP Bokombondji,,,,,,,,,,,,,religious,1207660343,node,,,,,,,,,GPS,,2010/04/21,,,,,,,,www.rgc.cd,,,,,,,,,,,,,,,
1207660354,node,-0.8299891,18.1848708,,,,,,,,,,,,,,,,,,,,,,Ecole primaire Mpaha Mpole,school,,«Ces données géographiques proviennent du Référentiel Géographique Commun (www.rgc.cd).»,,,,,,,,,,,,,,,,,,,,,,,,,,,,,,Equateur,Bikoro,Lac Ntomba,,Bikoro,,,,,,,,,,,,EP Mpaha Epole,,,,,,,,,,,,,religious,1207660354,node,,,,,,,,,GPS,,2010/04/21,,,,,,,,www.rgc.cd,,,,,,,,,,,,,,,
1207660358,node,-0.0657524,18.169366,,,,,,,,,,,,,,,,,,,,,,Ecole primaire Ekofo,school,,«Ces données géographiques proviennent du Référentiel Géographique Commun (www.rgc.cd).»,,,,,,,,,,,,,,,,,,,,,,,,,,,,,,Equateur,Mbandaka,Wangata,,Mbandaka 1,,,,,,,,,,,,EP Ekofo,,,,,,,,,,,,,religious,1207660358,node,,,,,,,,,GPS,,2010/04/21,,,,,,,,www.rgc.cd,,,,,,,,,,,,,,,
1207660372,node,2.9751389,19.3518611,,,,,,,,,,,,,,,,,,,,,,,school,,«Ces données géographiques proviennent du Référentiel Géographique Commun (www.rgc.cd).»,,,,,,,,,,,,,,,,,,,,,,,,,,,,,,,,,,,,,,,,,,,,,,Ecole primaire Nguvale,,,,,,,,,,,,,,1207660372,node,,,,,primaire,,,,GPS,,2010/04/21,,,,,,,,www.rgc.cd,,,,,,,,,,,,,,,
1207660378,node,-0.0099839,18.3269081,,,,,,,,,,,,,,,,,,,,,,,school,,«Ces données géographiques proviennent du Référentiel Géographique Commun (www.rgc.cd).»,,,,,,,,,,,,,,,,,,,,,,location approximate,,,,,,,,,,,,,,,,,,,,,,,,Ecole primaire Ikengo,,,,,,,,,,,,,,1207660378,node,,,,,primaire,,,,GPS,,2010/04/21,,,,,,,,www.rgc.cd,,,,,,,,,,,,,,,
1207660384,node,-1.0289311,18.6278682,,,,,,,,,,,,,,,,,,,,,,Ecole primaire Mpiko,school,,«Ces données géographiques proviennent du Référentiel Géographique Commun (www.rgc.cd).»,,,,,,,,,,,,,,,,,,,,,,,,,,,,,,Equateur,Bikoro,Ekonda,,Bikoro,,,,,,,,,,,,EP Mpiko,,,,,,,,,,,,,religious,1207660384,node,,,,,,,,,GPS,,2010/04/21,,,,,,,,www.rgc.cd,,,,,,,,,,,,,,,
1207660403,node,0.0477778,18.2477778,,,,,,,,,,,,,,,,,,,,,,,school,,«Ces données géographiques proviennent du Référentiel Géographique Commun (www.rgc.cd).»,,,,,,,,,,,,,,,,,,,,,,,,,,,,,,,,,,,,,,,,,,,,,,Ecole primaire Papa Diangenda,,,,,,,,,,,,,,1207660403,node,,,,,primaire,,,,GPS,,2010/04/21,,,,,,,,www.rgc.cd,,,,,,,,,,,,,,,
1207660409,node,-1.0191885,18.6379008,,,,,,,,,,,,,,,,,,,,,,Ecole primaire Mbongo Buyombo,school,,«Ces données géographiques proviennent du Référentiel Géographique Commun (www.rgc.cd).»,,,,,,,,,,,,,,,,,,,,,,,,,,,,,,Equateur,Bikoro,Ekonda,,Bikoro,,,,,,,,,,,,EP Mbongo Buyombo,,,,,,,,,,,,,religious,1207660409,node,,,,,,,,,GPS,,2010/04/21,,,,,,,,www.rgc.cd,,,,,,,,,,,,,,,
1207660425,node,3.25725,19.7898611,,,,,,,,,,,,,,,,,,,,,,,school,,«Ces données géographiques proviennent du Référentiel Géographique Commun (www.rgc.cd).»,,,,,,,,,,,,,,,,,,,,,,,,,,,,,,,,,,,,,,,,,,,,,,Ecole primaire Maman Yanga,,,,,,,,,,,,,,1207660425,node,,,,,primaire,,,,GPS,,2010/04/21,,,,,,,,www.rgc.cd,,,,,,,,,,,,,,,
1207660445,node,3.1757778,19.2439722,,,,,,,,,,,,,,,,,,,,,,,school,,«Ces données géographiques proviennent du Référentiel Géographique Commun (www.rgc.cd).»,,,,,,,,,,,,,,,,,,,,,,,,,,,,,,,,,,,,,,,,,,,,,,Ecole primaire Talasa,,,,,,,,,,,,,,1207660445,node,,,,,primaire,,,,GPS,,2010/04/21,,,,,,,,www.rgc.cd,,,,,,,,,,,,,,,
1207660450,node,-0.8338388,18.1765274,,,,,,,,,,,,,,,,,,,,,,Ecole primaire Besenge,school,,«Ces données géographiques proviennent du Référentiel Géographique Commun (www.rgc.cd).»,,,,,,,,,,,,,,,,,,,,,,,,,,,,,,Equateur,Bikoro,Lac Ntomba,,Bikoro,,,,,,,,,,,,EP Besenge,,,,,,,,,,,,,religious,1207660450,node,,,,,,,,,GPS,,2010/04/21,,,,,,,,www.rgc.cd,,,,,,,,,,,,,,,
1207660455,node,0.0102642,18.3274462,,,,,,,,,,,,,,,,,,,,,,,school,,«Ces données géographiques proviennent du Référentiel Géographique Commun (www.rgc.cd).»,,,,,,,,,,,,,,,,,,,,,,,,,,,,,,,,,,,,,,,,,,,,,,École primaire Etoko,,,,,,,,,,,,,,1207660455,node,,,,,primaire,,,,GPS,,2010/04/21,,,,,,,,www.rgc.cd,,,,,,,,,,,,,,,
1207660473,node,3.2409167,19.6926389,,,,,,,,,,,,,,,,,,,,,,,school,,«Ces données géographiques proviennent du Référentiel Géographique Commun (www.rgc.cd).»,,,,,,,,,,,,,,,,,,,,,,,,,,,,,,,,,,,,,,,,,,,,,,Ecole primaire Sembi,,,,,,,,,,,,,,1207660473,node,,,,,primaire,,,,GPS,,2010/04/21,,,,,,,,www.rgc.cd,,,,,,,,,,,,,,,
1207660479,node,0.0344289,18.2505451,,,,,,,,,,,,,,,,,,,,,,Ecole primaire Mompepe 2,school,,«Ces données géographiques proviennent du Référentiel Géographique Commun (www.rgc.cd).»,,,,,,,,,,,,,,,,,,,,,,Check exact building,,,,,,,,Equateur,Mbandaka,Wangata,,Mbandaka 1,,,,,,,,,,,,EP2 Mopepe,,,,,,,,,,,,,religious,1207660479,node,,,,,,,,,GPS,,,,,,,,,,www.rgc.cd,,,,,,,,,,,,,,,
1207660492,node,4.3482184,18.5932282,,,,,,,,,,,,,,,,,,,,,,,school,,Â«Ces donnÃ©es gÃ©ographiques proviennent du RÃ©fÃ©rentiel GÃ©ographique Commun (www.rgc.cd).Â»,,,,,,,,,,,,,,,,,,,,,,,,,,,,,,,,,,,,,,,,,,,,,,École primaire Nika,,,,,,,,,,,,,,1207660492,node,,,,,primaire,,,,GPS,,2010/04/21,,,,,,,,www.rgc.cd,,,,,,,,,,,,,,,
1207660521,node,-0.8180582,18.6666613,,,,,,,,,,,,,,,,,,,,,,Ecole primaire Itema Nongo,school,,«Ces données géographiques proviennent du Référentiel Géographique Commun (www.rgc.cd).»,,,,,,,,,,,,,,,,,,,,,,Check name spelling,,,,,,,,Equateur,Bikoro,Ekonda,,Bikoro,,,,,,,,,,,,EP Itemanonga,,,,,,,,,,,,,religious,1207660521,node,,,,,,,,,RGC; USAID,,,,,,,,,,www.rgc.cd,,,,,,,,,,,,,,,
1207660550,node,3.31875,19.8211389,,,,,,,,,,,,,,,,,,,,,,,school,,«Ces données géographiques proviennent du Référentiel Géographique Commun (www.rgc.cd).»,,,,,,,,,,,,,,,,,,,,,,,,,,,,,,,,,,,,,,,,,,,,,,Ecole primaire Bodigia,,,,,,,,,,,,,,1207660550,node,,,,,primaire,,,,GPS,,2010/04/21,,,,,,,,www.rgc.cd,,,,,,,,,,,,,,,
1207660553,node,0.0433333,18.2644444,,,,,,,,,,,,,,,,,,,,,,,school,,«Ces données géographiques proviennent du Référentiel Géographique Commun (www.rgc.cd).»,,,,,,,,,,,,,,,,,,,,,,,,,,,,,,,,,,,,,,,,,,,,,,Ecole primaire Ekof'ekema 1,,,,,,,,,,,,,,1207660553,node,,,,,primaire,,,,GPS,,2010/04/21,,,,,,,,www.rgc.cd,,,,,,,,,,,,,,,
1207660563,node,-1.0725556,18.6205,,,,,,,,,,,,,,,,,,,,,,,school,,«Ces données géographiques proviennent du Référentiel Géographique Commun (www.rgc.cd).»,,,,,,,,,,,,,,,,,,,,,,,,,,,,,,,,,,,,,,,,,,,,,,Ecole primaire Nzembenga,,,,,,,,,,,,,,1207660563,node,,,,,primaire,,,,GPS,,2010/04/21,,,,,,,,www.rgc.cd,,,,,,,,,,,,,,,
1207660580,node,-0.7537476,18.2321524,,,,,,,,,,,,,,,,,,,,,,,school,,«Ces données géographiques proviennent du Référentiel Géographique Commun (www.rgc.cd).»,,,,,,,,,,,,,,,,,,,,,,,,,,,,,,,,,,,,,,,,,,,,,,École primaire Liyombo Mpenda,,,,,,,,,,,,,,1207660580,node,,,,,primaire,,,,GPS,,2010/04/21,,,,,,,,www.rgc.cd,,,,,,,,,,,,,,,
1207660585,node,-0.1255878,18.1370195,,,,,,,,,,,,,,,,,,,,,,,school,,«Ces données géographiques proviennent du Référentiel Géographique Commun (www.rgc.cd).»,,,,,,,,,,,,,,,,,,,,,,,,,,,,,,,,,,,,,,,,,,,,,,Ecole primaire Eanga,,,,,,,,,,,,,,1207660585,node,,,,,primaire,,,,GPS,,2010/04/21,,,,,,,,www.rgc.cd,,,,,,,,,,,,,,,
1207666051,node,0.1960556,25.5308889,,,,,,,,,,,,,,,,,,,,,,,school,,«Ces données géographiques proviennent du Référentiel Géographique Commun (www.rgc.cd).»,,,,,,,,,,,,,,,,,,,,,,,,,,,,,,,,,,,,,,,,,,,,,,Ecole primaire Wanie-rukula,,,,,,,,,,,,,,1207666051,node,,,,,primaire,,,,GPS,,2010/04/21,,,,,,,,www.rgc.cd,,,,,,,,,,,,,,,
1207666060,node,0.8763333,25.1919167,,,,,,,,,,,,,,,,,,,,,,,school,,«Ces données géographiques proviennent du Référentiel Géographique Commun (www.rgc.cd).»,,,,,,,,,,,,,,,,,,,,,,,,,,,,,,,,,,,,,,,,,,,,,,Ecole primaire Bayangene I,,,,,,,,,,,,,,1207666060,node,,,,,primaire,,,,GPS,,2010/04/21,,,,,,,,www.rgc.cd,,,,,,,,,,,,,,,
1207666069,node,0.1967778,25.5202778,,,,,,,,,,,,,,,,,,,,,,,school,,«Ces données géographiques proviennent du Référentiel Géographique Commun (www.rgc.cd).»,,,,,,,,,,,,,,,,,,,,,,,,,,,,,,,,,,,,,,,,,,,,,,Ecole primaire Tomibikisa,,,,,,,,,,,,,,1207666069,node,,,,,primaire,,,,GPS,,2010/04/21,,,,,,,,www.rgc.cd,,,,,,,,,,,,,,,
1207666091,node,0.8794722,25.1928611,,,,,,,,,,,,,,,,,,,,,,,school,,«Ces données géographiques proviennent du Référentiel Géographique Commun (www.rgc.cd).»,,,,,,,,,,,,,,,,,,,,,,,,,,,,,,,,,,,,,,,,,,,,,,Ecole primaire Bayangene II,,,,,,,,,,,,,,1207666091,node,,,,,primaire,,,,GPS,,2010/04/21,,,,,,,,www.rgc.cd,,,,,,,,,,,,,,,
1207666097,node,-0.2380278,25.3209722,,,,,,,,,,,,,,,,,,,,,,,school,,«Ces données géographiques proviennent du Référentiel Géographique Commun (www.rgc.cd).»,,,,,,,,,,,,,,,,,,,,,,,,,,,,,,,,,,,,,,,,,,,,,,Ecole primaire Ndjale,,,,,,,,,,,,,,1207666097,node,,,,,primaire,,,,GPS,,2010/04/21,,,,,,,,www.rgc.cd,,,,,,,,,,,,,,,
1207686205,node,0.0947622,29.2848243,,,,,,,,,,,,,,,,,,,,,,,school,,«Ces données géographiques proviennent du Référentiel Géographique Commun (www.rgc.cd).»,,,,,,,,,2021-08-23,,,,,,,,,,,,,,,,,,,,,,,,,,,,,,,,,,,,,Institut Matanda,,,,,,,,,,,,,,1207686205,node,,,,,secondaire,,,,GPS,,2009/05/16,,,,,,,,www.rgc.cd,,,,,,,,,,,,,,,
1207686236,node,0.3674602,29.2729622,,,,,,,,,,,,,,,,,,,,,,,school,,«Ces données géographiques proviennent du Référentiel Géographique Commun (www.rgc.cd).»,,,,,,,,,,2021-02-22,,,,,,,,,,,,,,,,,,,,,,,,,,,,,,,,,,,,École Primaire Mambingi,,,,,,,,,,,,,,1207686236,node,,,,,primaire,,,,OSM RDC;BCZ;AS,,2009/05/16,,,,,,,,www.rgc.cd,,,,,,,,,,,,,,,
1207686249,node,0.1165883,29.3083216,,,,,,,,,,,,,,,,,,,,,,,school,,«Ces données géographiques proviennent du Référentiel Géographique Commun (www.rgc.cd).»,,,,,,,,,,2021-09-27,,,,,,,,,,,,,,,,,,,,,,,,,Kamusonge,,,,,,,,,,,École primaire Kisuku / Limboro,,,,,,,,,,,,,,1207686249,node,,,,,primaire,,,,GPS,,2009/05/16,,,,,,,,www.rgc.cd,,,,,,,,,,,,,,,
1207686301,node,0.1174933,29.3189876,,,,,,,,,,,,,,,,,,,,,,,school,,«Ces données géographiques proviennent du Référentiel Géographique Commun (www.rgc.cd).»,,,,,,,,,,,,,,,,,,,,,,,,,,,,,,,,,,,,,,,,,,,,,,École Primaire La Vérité,,,,,,,,,,,,,,1207686301,node,,,,,primaire,,,,GPS,,2009-05-16,,,,,,,,www.rgc.cd,,,,,,,,,,,,,,,
1207686327,node,0.1441,29.319333,,,,,,,,,,,,,,,,,,,,,,,school,,«Ces données géographiques proviennent du Référentiel Géographique Commun (www.rgc.cd).»,,,,,,,,,,,,,,,,,,,,,,,,,,,,,,,,,,,,,,,,,,,,,,Ecole Secondaire Ngesse,,,,,,,,,,,,,,1207686327,node,,,,,secondaire,,,,GPS,,2009-05-16,,,,,,,,www.rgc.cd,,,,,,,,,,,,,,,
1207686335,node,0.3231,29.20069,,,,,,,,,,,,,,,,,,,,,,,school,,«Ces données géographiques proviennent du Référentiel Géographique Commun (www.rgc.cd).»,,,,,,,,,,,,,,,,,,,,,,,,,,,,,,,,,,,,,,,,,,,,,,École Primaire Sambo Mbilinga,,,,,,,,,,,,,,1207686335,node,,,,,primaire,,,,GPS,,2009/05/16,,,,,,,,www.rgc.cd,,,,,,,,,,,,,,,
1207686358,node,0.0919682,29.3194718,,,,,,,,,,,,,,,,,,,,,,,school,,«Ces données géographiques proviennent du Référentiel Géographique Commun (www.rgc.cd).»,,,,,,,,,,,,,,,,,,,,,,,,,,,,,,,,,,,Leproserie,,Vuhika,,,,,,,,,Institut Vuhika,,,,,,,,,,,,,,1207686358,node,,,,,secondaire,,,,GPS,,2009/05/16,,,,,,,,www.rgc.cd,,,,,,,,,,,,,,,
1207686375,node,0.25965,29.27552,,,,,,,,,,,,,,,,,,,,,,,school,,«Ces données géographiques proviennent du Référentiel Géographique Commun (www.rgc.cd).»,,,,,,,,,,2021-04-26,,,,,,,,,,,,,,,,,,,,,,,,,,,,,,,,,,,,École Primaire Malepe,,,,,,,,,,,,,,1207686375,node,,,,,primaire,,,,GPS,,2009/05/16,,,,,,,,www.rgc.cd,,,,,,,,,,,,,,,
1207686385,node,0.1314259,29.3296225,,,,,,,,,,,,,,,,,,,,,,,school,,«Ces données géographiques proviennent du Référentiel Géographique Commun (www.rgc.cd).»,,,,,,,,,,,,,,,,,,,,,,,,,,,,,,,,,,,,,,,,,,,,,,École Primaire Teule,,,,,,,,,,,,,,1207686385,node,,,,,,,,,GPS,,2009-05-16,,,,,,,,www.rgc.cd,,,,,,,,,,,,,,,
1207686421,node,0.1599479,29.316928,,,,,,,,,,,,,,,,,,,,,,,school,,«Ces données géographiques proviennent du Référentiel Géographique Commun (www.rgc.cd).»,,,,,,,,,,,,,,,,,,,,,,,,,,,,,,,,,,,,,,,,,,,,,,École Primaire Munimba,,,,,,,,,,,,,,1207686421,node,,,,,primaire,,,,GPS,,2009-05-16,,,,,,,,www.rgc.cd,,,,,,,,,,,,,,,
1207686433,node,0.0952335,29.3119256,,,,,,,,,,,,,,,,,,,,,,,school,,«Ces données géographiques proviennent du Référentiel Géographique Commun (www.rgc.cd).»,,,,,,,,,,,,,,,,,,,,,,,,,,,,,,,,,,,IBK,,Vuhika,,,,,,,,,École Primaire Kirindera,,,,,,,,,,,,,,1207686433,node,,,,,primaire,,,EP Kirindera,GPS,,2009/05/16,,,,,,,,www.rgc.cd,,,,,,,,,,,,,,,
1207686478,node,0.0978454,29.3060994,,,,,,,,,,,,,,,,,,,,,,,school,,«Ces données géographiques proviennent du Référentiel Géographique Commun (www.rgc.cd).»,,,,,,,,,2021-09-16,2023-04-26,,,,,,,,,,,,,,,,,,,,,,,,,Kavughavugha,,Vuhika,,,,,,,,,Institut Nderembi,,,,,,,,,,,,,,1207686478,node,,,,,secondaire,,,,GPS,,,,,,,,,,www.rgc.cd,,,,,,,,,,,,,,,
1207686487,node,0.1454052,29.3354654,,,,,,,,,,,,,,,,,,,,,,,school,,«Ces données géographiques proviennent du Référentiel Géographique Commun (www.rgc.cd).»,,,,,,,,,,,,,,,,,,,,,,confirm,,,,,,,,,,,,,,,,,,,,,,,,Ecole Primaire Bulengera,,,,,,,,,,,,,,1207686487,node,,,,,primaire,,,,GPS,,2009-05-16,,,,,,,,www.rgc.cd,,,,,,,,,,,,,,,
1207686500,node,0.35778,29.18608,,,,,,,,,,,,,,,,,,,,,,,school,,«Ces données géographiques proviennent du Référentiel Géographique Commun (www.rgc.cd).»,,,,,,,,,,,,,,,,,,,,,,,,,,,,,,,,,,,,,,,,,,,,,,École Primaire Mashua,,,,,,,,,,,,,,1207686500,node,,,,,,,,,GPS,,2009/05/16,,,,,,,,www.rgc.cd,,,,,,,,,,,,,,,
1207686510,node,0.1211656,29.3015055,,,,,,,,,,,,,,,,,,,,,,EP Masiki,school,,«Ces données géographiques proviennent du Référentiel Géographique Commun (www.rgc.cd).»,,,,,,,,,,2021-09-04,,,,,,,,,,,,,,,,,,,,,,,,,,,,,,,,,,,,Ecole Primaire Masiki,,,,,,,,,,,,anglican,,1207686510,node,,,,,primaire,,,,GPS,,2009/05/16,,,,,,,,www.rgc.cd,,,,,,,,,,,,,,,
1207686538,node,0.1281893,29.2937803,,,,,,,,,,,,,,,,,,,,,,,school,,«Ces données géographiques proviennent du Référentiel Géographique Commun (www.rgc.cd).»,,,,,,,,,,2023-04-23,,,,,,,,,,,,,,,,,,,,,,,,,,,,,,,,,,,,École Secondaire Petits Génies,,,,,,,,,,,,,,1207686538,node,,,,,secondaire,,,,GPS,,2009-05-16,,,,,,,,www.rgc.cd,,,,,,,,,,,,,,,
1207686544,node,0.0747606,29.3062283,,,,,,,,,,,,,,,,,,,,,,,school,,«Ces données géographiques proviennent du Référentiel Géographique Commun (www.rgc.cd).»,,,,,,,,,2021-08-23,,,,,,,,,,,,,,,,,,,,,,,,,,,,,,,,,,,,,École Primaire et Secondaire Vighole,,,,,,,,,,,,,,1207686544,node,,,,,,,,,GPS,,2009/05/16,,,,,,,,www.rgc.cd,,,,,,,,,,,,,,,
1207686567,node,1.1291944,29.9880833,,,,,,,,,,,,,,,,,,,,,,,school,,«Ces données géographiques proviennent du Référentiel Géographique Commun (www.rgc.cd).»,,,,,,,,,,,,,,,,,,,,,,,,,,,,,,,,,,,,,,,,,,,,,,Kamatsi Mkb,,,,,,,,,,,,,,1207686567,node,,,,,,,,,GPS,,2008/11/07,,,,,,,,www.rgc.cd,,,,,,,,,,,,,,,
1207686601,node,0.145,29.317383,,,,,,,,,,,,,,,,,,,,,,,school,,«Ces données géographiques proviennent du Référentiel Géographique Commun (www.rgc.cd).»,,,,,,,,,,,,,,,,,,,,,,,,,,,,,,,,,,,,,,,,,,,,,,Ecole secondaire Mont Carmel,,,,,,,,,,,,,,1207686601,node,,,,,secondaire,,,,GPS,,2009-05-16,,,,,,,,www.rgc.cd,,,,,,,,,,,,,,,
1207686630,node,0.0985916,29.2831809,,,,,,,,,,,,,,,,,,,,,,,school,,«Ces données géographiques proviennent du Référentiel Géographique Commun (www.rgc.cd).»,,,,,,,,,,,,,,,,,,,,,,,,,,,,,,,,,,,,,,,,,,,,,,École primaire Monseigneur Sikuli,,,,,,,,,,,,,,1207686630,node,,,,,primaire,,,,GPS,,2009/05/16,,,,,,,,www.rgc.cd,,,,,,,,,,,,,,,
1207686652,node,0.2594049,29.2333752,,,,,,,,,,,,,,,,,,,,,,,school,,«Ces données géographiques proviennent du Référentiel Géographique Commun (www.rgc.cd).»,,,,,,,,,,2021-05-23,,,,,,,,,,,,,,,,,,,,,,,,,,,,,,,,,,,,École primaire Bubanda,,,,,,,,,,,,,,1207686652,node,,,,,primaire,,,,GPS,,2009/05/16,,,,,,,,www.rgc.cd,,,,,,,,,,,,,,,
1207686654,node,0.1554495,29.3005668,,,,,,,,,,,,,,,,,,,,,,,school,,«Ces données géographiques proviennent du Référentiel Géographique Commun (www.rgc.cd).»,,,,,,,,,,2021-09-27,,,,,,,,,,,,,,,,,,,,,,,,,,,,,,,,,,,,Ecole Secondaire CBCA Kikyo,,,,,,,,,,,,,,1207686654,node,,,,,,,,,GPS,,2009/05/16,,,,,,,,www.rgc.cd,,,,,,,,,,,,,,,
1207686661,node,0.1269725,29.2954479,,,,,,,,,,,,,,,,,,,,,,,school,,«Ces données géographiques proviennent du Référentiel Géographique Commun (www.rgc.cd).»,,,,,,,,,,2023-04-27,,,,,,,,,,,,,,,,,,,,,,,,,Biondi,,Vungi,,,,,,,,,Complexe Scolaire Labourgeoisie,,,,,,,,,,Institut Makarengo,,,,1207686661,node,,,,,,,,,OSM RDC,,2009/05/16,,,,,,,,www.rgc.cd,,,,,,,,,,,,,,,
1207686677,node,0.3592,29.18553,,,,,,,,,,,,,,,,,,,,,,,school,,«Ces données géographiques proviennent du Référentiel Géographique Commun (www.rgc.cd).»,,,,,,,,,,,,,,,,,,,,,,,,,,,,,,,,,,,,,,,,,,,,,,École Primaire et Secondaire Mashua,,,,,,,,,,,,,,1207686677,node,,,,,,,,,GPS,,2009/05/16,,,,,,,,www.rgc.cd,,,,,,,,,,,,,,,
1207686681,node,0.1065092,29.2992114,,,,,,,,,,,,,,,,,,,,,,,school,,«Ces données géographiques proviennent du Référentiel Géographique Commun (www.rgc.cd).»,,,,,,,,,2021-08-23,,,,,,,,,,,,,,,,,,,,,,,,,,,,,,,,,,,,,École Primaire Mahero,,,,,,,,,,,,,,1207686681,node,,,,,primaire,,,,GPS,,2009/05/16,,,,,,,,www.rgc.cd,,,,,,,,,,,,,,,
1207686703,node,0.1217693,29.3220821,,,,,,,,,,,,,,,,,,,,,,,school,,«Ces données géographiques proviennent du Référentiel Géographique Commun (www.rgc.cd).»,,,,,,,,,,,,,,,,,,,,,,,,,,,,,,,,,,,,,,,,,,,,,,École secondaire Hanga,,,,,,,,,,,,,,1207686703,node,,,,,secondaire,,,,GPS,,2009-05-16,,,,,,,,www.rgc.cd,,,,,,,,,,,,,,,
1207686710,node,0.1287394,29.3113554,,,,,,,,,,,,,,,,,,,,,,,school,,«Ces données géographiques proviennent du Référentiel Géographique Commun (www.rgc.cd).»,,,,,,,,,,,,,,,,,,,,,,,,,,,,,,,,,,,,,,,,,,,,,,École Secondaire Emmanuel,,,,,,,,,,,,,,1207686710,node,,,,,secondaire,,,,GPS,,2009-05-16,,,,,,,,www.rgc.cd,,,,,,,,,,,,,,,
1207686713,node,0.6108333,29.3121389,,,,,,,,,,,,,,,,,,,,,,,school,,«Ces données géographiques proviennent du Référentiel Géographique Commun (www.rgc.cd).»,,,,,,,,,,,,,,,,,,,,,,,,,,,,,,,,,,,,,,,,,,,,,,École primaire Masimbembe,,,,,,,,,,,,,,1207686713,node,,,,,,,,EP Masimbembe,GPS,,2010-04-21,,,,,,,,www.rgc.cd,,,,,,,,,,,,,,,
1207686744,node,0.0967,29.3108847,,,,,,,,,,,,,,,,,,,,,,,school,,«Ces données géographiques proviennent du Référentiel Géographique Commun (www.rgc.cd).»,,,,,,,,,,2021-09-14,,,,,,,,,,,,,,,,,,,,,,,,,IBK,,Vuhika,,,,,,,,,Lycée Utamaduni,,,,,,,,,,,,CBCA,,1207686744,node,,,,,secondaire,,,,GPS,,,,,,,,,,www.rgc.cd,,,,,,,,,,,,,,,
1207686766,node,1.8449725,30.469903,,,,,,,,,,,,,,,,,,,,,,,school,,«Ces données géographiques proviennent du Référentiel Géographique Commun (www.rgc.cd).»,,,,,,,,,,,,,,,,,,,,,,,,,,,,,,,,,,,,,,,,,,,,,,Ita Pimbo,,,,,,,,,,,,,,1207686766,node,,,,,,,,,GPS,,2009/09/09,,,,,,,,www.rgc.cd,,,,,,,,,,,,,,,
1207686789,node,0.6794444,29.4132222,,,,,,,,,,,,,,,,,,,,,,,school,,«Ces données géographiques proviennent du Référentiel Géographique Commun (www.rgc.cd).»,,,,,,,,,,,,,,,,,,,,,,,,,,,,,,,,,,,,,,,,,,,,,,École primaire Maliese,,,,,,,,,,,,,,1207686789,node,,,,,,,,EP Maliese,GPS,,2010-04-21,,,,,,,,www.rgc.cd,,,,,,,,,,,,,,,
1207686794,node,0.32256,29.24796,,,,,,,,,,,,,,,,,,,,,,,school,,«Ces données géographiques proviennent du Référentiel Géographique Commun (www.rgc.cd).»,,,,,,,,,,2023-05-02,,,,,,,,,,,,,,,,,,,,,,,,,,,,,,,,,,,,École Primaire Kyavisogho,,,,,,,,,,,,,,1207686794,node,,,,,,,,,GPS,,,,,,,,,,www.rgc.cd,,,,,,,,,,,,,,,
1207686809,node,0.1059573,29.3059008,,,,,,,,,,,,,,,,,,,,,,,school,,«Ces données géographiques proviennent du Référentiel Géographique Commun (www.rgc.cd).»,,,,,,,,,,,,,,,,,,,,,,,,,,,,,,,,,,,,,,,,,,,,,,École Primaire Huruma,,,,,,,,,,,,,,1207686809,node,,,,,primaire,,,,GPS,,2009/05/16,,,,,,,,www.rgc.cd,,,,,,,,,,,,,,,
1207686813,node,0.26545,29.25541,,,,,,,,,,,,,,,,,,,,,,,school,,«Ces données géographiques proviennent du Référentiel Géographique Commun (www.rgc.cd).»,,,,,,,,,,,,,,,,,,,,,,,,,,,,,,,,,,,,,,,,,,,,,,Institut Kanyihunga,,,,,,,,,,,,,,1207686813,node,,,,,secondaire,,,,GPS,,2009/05/16,,,,,,,,www.rgc.cd,,,,,,,,,,,,,,,
1207686834,node,0.105567,29.3338,,,,,,,,,,,,,,,,,,,,,,,school,,«Ces données géographiques proviennent du Référentiel Géographique Commun (www.rgc.cd).»,,,,,,,,,,,,,,,,,,,,,,,,,,,,,,,,,,,,,,,,,,,,,,École Primaire Kisoko,,,,,,,,,,,,,,1207686834,node,,,,,primaire,,,EP Kisoko,GPS,,2009-05-16,,,,,,,,www.rgc.cd,,,,,,,,,,,,,,,
1207686878,node,1.1802778,30.0348611,,,,,,,,,,,,,,,,,,,,,,,school,,«Ces données géographiques proviennent du Référentiel Géographique Commun (www.rgc.cd).»,,,,,,,,,,,,,,,,,,,,,,,,,,,,,,,,,,,,,,,,,,,,,,Matafu,,,,,,,,,,,,,,1207686878,node,,,,,,,,,GPS,,2008/11/04,,,,,,,,www.rgc.cd,,,,,,,,,,,,,,,
1207686879,node,0.1403447,29.2984572,,,,,,,,,,,,,,,,,,,,,,,school,,«Ces données géographiques proviennent du Référentiel Géographique Commun (www.rgc.cd).»,,,,,,,,,,,,,,,,,,,,,,,,,,,,,,,,,,,,,,,,,,,,,,Institut Malkia Wa Mbingu,,,,,,,,,,,,,,1207686879,node,,,,,secondaire,,,,GPS,,2009-05-16,,,,,,,,www.rgc.cd,,,,,,,,,,,,,,,
1207686917,node,0.0960643,29.3119258,,,,,,,,,,,,,,,,,,,,,,,school,,«Ces données géographiques proviennent du Référentiel Géographique Commun (www.rgc.cd).»,,,,,,,,,,,,,,,,,,,,,,,,,,,,,,,,,,,IBK,,Vuhika,,,,,,,,,École Primaire Kavisa,,,,,,,,,,,,,,1207686917,node,,,,,primaire,,,EP Kavisa,GPS,,2009/05/16,,,,,,,,www.rgc.cd,,,,,,,,,,,,,,,
1207686963,node,0.1616095,29.2966249,,,,,,,,,,,,,,,,,,,,,,,school,,«Ces données géographiques proviennent du Référentiel Géographique Commun (www.rgc.cd).»,,,,,,,,,,,,,,,,,,,,,,,,,,,,,,,,,,,,,,,,,,,,,,Institut Mihake,,,,,,,,,,,,,,1207686963,node,,,,,secondaire,,,,GPS,,2009-05-16,,,,,,,,www.rgc.cd,,,,,,,,,,,,,,,
1207686965,node,0.3453451,29.2988919,,,,,,,,,,,,,,,,,,,,,,,school,,«Ces données géographiques proviennent du Référentiel Géographique Commun (www.rgc.cd).»,,,,,,,,,,,,,,,,,,,,,,,,,,,,,,,,,,,,,,,,,,,,,,École Primaire Quinze,,,,,,,,,,,,,,1207686965,node,,,,,primaire,,,,GPS,,2009/05/16,,,,,,,,www.rgc.cd,,,,,,,,,,,,,,,
1207686991,node,0.1588669,29.3173891,,,,,,,,,,,,,,,,,,,,,,,school,,«Ces données géographiques proviennent du Référentiel Géographique Commun (www.rgc.cd).»,,,,,,,,,,,,,,,,,,,,,,,,,,,,,,,,,,,,,,,,,,,,,,École Secondaire Nuru,,,,,,,,,,,,,,1207686991,node,,,,,secondaire,,,EP Nuru,GPS,,2009-05-16,,,,,,,,www.rgc.cd,,,,,,,,,,,,,,,
1207686997,node,0.087517,29.2995,,,,,,,,,,,,,,,,,,,,,,,school,,«Ces données géographiques proviennent du Référentiel Géographique Commun (www.rgc.cd).»,,,,,,,,,,,,,,,,,,,,,,,,,,,,,,,,,,,,,,,,,,,,,,École Primaire Vukaka,,,,,,,,,,,,,,1207686997,node,,,,,primaire,,,,GPS,,2009/05/16,,,,,,,,www.rgc.cd,,,,,,,,,,,,,,,
1207687008,node,0.1326196,29.2942679,,,,,,,,,,,,,,,,,,,,,,,school,,«Ces données géographiques proviennent du Référentiel Géographique Commun (www.rgc.cd).»,,,,,,,,,,2023-04-23,,,,,,,,,,,,,,,,,,,,,,,,,Vungi B,,Vungi,,,,,,,,,École Primaire Vungi,,,,,,,,,,,,,,1207687008,node,,,,,primaire,,,,GPS,,2009/05/16,,,,,,,,www.rgc.cd,,,,,,,,,,,,,,,
1207687016,node,0.0951351,29.284722,,,,,,,,,,,,,,,,,,,,,,,school,,«Ces données géographiques proviennent du Référentiel Géographique Commun (www.rgc.cd).»,,,,,,,,,,,,,,,,,,,,,,,,,,,,,,,,,,,,,,,,,,,,,,École Primaire Matanda,,,,,,,,,,,,,,1207687016,node,,,,,primaire,,,,GPS,,2009/05/16,,,,,,,,www.rgc.cd,,,,,,,,,,,,,,,
1207687022,node,0.238533,29.244533,,,,,,,,,,,,,,,,,,,,,,,school,,«Ces données géographiques proviennent du Référentiel Géographique Commun (www.rgc.cd).»,,,,,,,,,,2021-05-23,,,,,,,,,,,,,,,,,,,,,,,,,,,,,,,,,,,,École Primaire Misevere,,,,,,,,,,,,,,1207687022,node,,,,,primaire,,,,GPS,,2009/05/16,,,,,,,,www.rgc.cd,,,,,,,,,,,,,,,
1207687026,node,0.138,29.307517,,,,,,,,,,,,,,,,,,,,,,,school,,«Ces données géographiques proviennent du Référentiel Géographique Commun (www.rgc.cd).»,,,,,,,,,,,,,,,,,,,,,,,,,,,,,,,,,,,,,,,,,,,,,,École Biblique Mutiri,,,,,,,,,,,,,,1207687026,node,,,,,,,,,GPS,,2009-05-16,,,,,,,,www.rgc.cd,,,,,,,,,,,,,,,
1207687039,node,0.2947158,29.3148671,,,,,,,,,,,,,,,,,,,,,,,school,,«Ces données géographiques proviennent du Référentiel Géographique Commun (www.rgc.cd).»,,,,,,,,,,2021-01-13,,,,,,,,,,,,No school appears here in satellite imagery. Please verify,,,,,,,,,,,,,,,,,,,,,,,,École Primaire et Secondaire Bashu,,,,,,,,,,,,,,1207687039,node,,,,,primaire,,,,GPS,,2009/05/16,,,,,,,,www.rgc.cd,,,,,,,,,,,,,,,
1207687060,node,0.1569326,29.3342585,,,,,,,,,,,,,,,,,,,,,,,school,,«Ces données géographiques proviennent du Référentiel Géographique Commun (www.rgc.cd).»,,,,,,,,,,,,,,,,,,,,,,,,,,,,,,,,,,,,,,,,,,,,,,Ecole Primaire Mahano,,,,,,,,,,,,,,1207687060,node,,,,,primaire,,,,GPS,,2009-05-16,,,,,,,,www.rgc.cd,,,,,,,,,,,,,,,
1207687069,node,0.128167,29.310933,,,,,,,,,,,,,,,,,,,,,,,school,,«Ces données géographiques proviennent du Référentiel Géographique Commun (www.rgc.cd).»,,,,,,,,,,,,,,,,,,,,,,,,,,,,,,,,,,,,,,,,,,,,,,École Secondaire Vuhumbu,,,,,,,,,,,,,,1207687069,node,,,,,secondaire,,,,GPS,,2009-05-16,,,,,,,,www.rgc.cd,,,,,,,,,,,,,,,
1207687101,node,0.1249687,29.3041946,,,,,,,,,,,,,,,,,,,,,,,school,,«Ces données géographiques proviennent du Référentiel Géographique Commun (www.rgc.cd).»,,,,,,,,,2021-09-08,,,,,,,,,,,,,,,,,,,,,,,,,,,,,,,,,,,,,Institut Mgr Henri Pierrard,,,,,,,,,,,,,,1207687101,node,,,,,secondaire,,,,GPS,,2009-05-16,,,,,,,,www.rgc.cd,,,,,,,,,,,,,,,
1207687129,node,0.1160127,29.3074266,,,,,,,,,,,,,,,,,,,,,,,school,,«Ces données géographiques proviennent du Référentiel Géographique Commun (www.rgc.cd).»,,,,,,,,,,2021-09-27,,,,,,,,,,,,,,,,,,,,,,,,,Kamusonge,,,,,,,,,,,Institut La Fraternité,,,,,,,,,,,,,,1207687129,node,,,,,secondaire,,,,GPS,,2009-05-16,,,,,,,,www.rgc.cd,,,,,,,,,,,,,,,
1207687144,node,0.4188331,29.1543505,,,,,,,,,,,,,,,,,,,,,,,school,,«Ces données géographiques proviennent du Référentiel Géographique Commun (www.rgc.cd).»,,,,,,,,,,,,,,,,,,,,,,,,,,,,,,,,,,,,,,,,,,,,,,Ecole primaire Ngazi,,,,,,,,,,,,,,1207687144,node,,,,,primaire,,,,GPS,,2009/05/16,,,,,,,,www.rgc.cd,,,,,,,,,,,,,,,
1207687148,node,0.0935478,29.3344255,,,,,,,,,,,,,,,,,,,,,,,school,,«Ces données géographiques proviennent du Référentiel Géographique Commun (www.rgc.cd).»,,,,,,,,,,,,,,,,,,,,,,,,,,,,,,,,,,,,,,,,,,,,,,Institut Kyavaghendi,,,,,,,,,,,,,,1207687148,node,,,,,secondaire,,,,GPS;OSM,,2009-05-16,,,,,,,,www.rgc.cd,,,,,,,,,,,,,,,
1207687165,node,0.0900312,29.2890793,,,,,,,,,,,,,,,,,,,,,,,school,,«Ces données géographiques proviennent du Référentiel Géographique Commun (www.rgc.cd).»,,,,,,,,,,,,,,,,,,,,,,,,,,,,,,,,,,,,,,,,,,,,,,École Primaire Bakita,,,,,,,,,,,,,,1207687165,node,,,,,primaire,,,,GPS,,2009/05/16,,,,,,,,www.rgc.cd,,,,,,,,,,,,,,,
1207687180,node,1.2398056,30.0991111,,,,,,,,,,,,,,,,,,,,,,,school,,«Ces données géographiques proviennent du Référentiel Géographique Commun (www.rgc.cd).»,,,,,,,,,,,,,,,,,,,,,,,,,,,,,,,,,,,,,,,,,,,,,,Kaswara,,,,,,,,,,,,,,1207687180,node,,,,,,,,,GPS,,2008/10/25,,,,,,,,www.rgc.cd,,,,,,,,,,,,,,,
1207687185,node,0.093784,29.271547,,,,,,,,,,,,,,,,,,,,,,,school,,«Ces données géographiques proviennent du Référentiel Géographique Commun (www.rgc.cd).»,,,,,,,,,,,,,,,,,,,,,,,,,,,,,,,,,,,,,,,,,,,,,,École Primaire Musimba,,,,,,,,,,,,,,1207687185,node,,,,,,,,,GPS,,2009/05/16,,,,,,,,www.rgc.cd,,,,,,,,,,,,,,,
1207687204,node,0.1101956,29.3006519,,,,,,,,,,,,,,,,,,,,,,,school,,«Ces données géographiques proviennent du Référentiel Géographique Commun (www.rgc.cd).»,,,,,,,,,,,,,,,,,,,,,,,,,,,,,,,,,,,,,,,,,,,,,,École secondaire Bulumbi,,,,,,,,,,,,,,1207687204,node,,,,,secondaire,,,,GPS,,2009/05/16,,,,,,,,www.rgc.cd,,,,,,,,,,,,,,,
1207687206,node,0.111558,29.273888,,,,,,,,,,,,,,,,,,,,,,,school,,«Ces données géographiques proviennent du Référentiel Géographique Commun (www.rgc.cd).»,,,,,,,,,,,,,,,,,,,,,,,,,,,,,,,,,,,,,,,,,,,,,,École primaire Kyatsinge,,,,,,,,,,,,,,1207687206,node,,,,,,,,,GPS,,2009/05/16,,,,,,,,www.rgc.cd,,,,,,,,,,,,,,,
1207687208,node,0.1302413,29.3205563,,,,,,,,,,,,,,,,,,,,,,,school,,«Ces données géographiques proviennent du Référentiel Géographique Commun (www.rgc.cd).»,,,,,,,,,,,,,,,,,,,,,,,,,,,,,,,,,,,,,,,,,,,,,,Lycée Butembo,,,,,,,,,,,,,,1207687208,node,,,,,secondaire,,,,GPS,,2009-05-16,,,,,,,,www.rgc.cd,,,,,,,,,,,,,,,
1207687214,node,0.2382722,29.2628214,,,,,,,,,,,,,,,,,,,,,,,school,,«Ces données géographiques proviennent du Référentiel Géographique Commun (www.rgc.cd).»,,,,,,,,,,,,,,,,,,,,,,,,,,,,,,,,,,,,,,,,,,,,,,École Primaire Kabasha,,,,,,,,,,,,,,1207687214,node,,,,,primaire,,,,GPS,,2009/05/16,,,,,,,,www.rgc.cd,,,,,,,,,,,,,,,
1207687218,node,0.0773186,29.2933537,,,,,,,,,,,,,,,,,,,,,,,school,,«Ces données géographiques proviennent du Référentiel Géographique Commun (www.rgc.cd).»,,,,,,,,,2021-08-23,2021-08-23,,,,,,,,,,,,,,,,,,,,,,,,,,,,,,,,,,,,École Primaire Bwinongo,,,,,,,,,,,,,,1207687218,node,,,,,secondaire,,,,GPS,,2009/05/16,,,,,,,,www.rgc.cd,,,,,,,,,,,,,,,
1207687232,node,0.16155,29.29455,,,,,,,,,,,,,,,,,,,,,,,school,,«Ces données géographiques proviennent du Référentiel Géographique Commun (www.rgc.cd).»,,,,,,,,,,,,,,,,,,,,,,,,,,,,,,,,,,,,,,,,,,,,,,Ecole primaire Reginacaeli,,,,,,,,,,,,,,1207687232,node,,,,,primaire,,,,GPS,,2009-05-16,,,,,,,,www.rgc.cd,,,,,,,,,,,,,,,
1207687234,node,0.1105009,29.3010368,,,,,,,,,,,,,,,,,,,,,,,school,,«Ces données géographiques proviennent du Référentiel Géographique Commun (www.rgc.cd).»,,,,,,,,,2021-08-23,,,,,,,,,,,,,,,,,,,,,,,,,,,,,,,,,,,,,École Primaire Bulumbi,,,,,,,,,,,,,,1207687234,node,,,,,primaire,,,,GPS,,2009/05/16,,,,,,,,www.rgc.cd,,,,,,,,,,,,,,,
1207687246,node,0.29928,29.2466,,,,,,,,,,,,,,,,,,,,,,,school,,«Ces données géographiques proviennent du Référentiel Géographique Commun (www.rgc.cd).»,,,,,,,,,,,,,,,,,,,,,,,,,,,,,,,,,,,,,,,,,,,,,,École Primaire Rupaya,,,,,,,,,,,,,,1207687246,node,,,,,primaire,,,,GPS,,2021-05-2009,,,,,,,,www.rgc.cd,,,,,,,,,,,,,,,
1207687251,node,0.1207207,29.301918,,,,,,,,,,,,,,,,,,,,,,,school,,«Ces données géographiques proviennent du Référentiel Géographique Commun (www.rgc.cd).»,,,,,,,,,,2021-09-04,,,,,,,,,,,,,,,,,,,,,,,,,,,,,,,,,,,,Institut Masiki,,,,,,,,,,,,,,1207687251,node,,,,,secondaire,,,,GPS,,2009/05/16,,,,,,,,www.rgc.cd,,,,,,,,,,,,,,,
1207687255,node,0.1371127,29.3343576,,,,,,,,,,,,,,,,,,,,,,,school,,«Ces données géographiques proviennent du Référentiel Géographique Commun (www.rgc.cd).»,,,,,,,,,,,,,,,,,,,,,,,,,,,,,,,,,,,,,,,,,,,,,,Ecole Secondaire Malevu,,,,,,,,,,,,,,1207687255,node,,,,,secondaire,,,,GPS,,2009-05-16,,,,,,,,www.rgc.cd,,,,,,,,,,,,,,,
1207687287,node,0.1348864,29.300083,,,,,,,,,,,,,,,,,,,,,,,school,,«Ces données géographiques proviennent du Référentiel Géographique Commun (www.rgc.cd).»,,,,,,,,,,2021-10-10,,,,,,,,,,,,,,,,,,,,,,,,,Vuhumbi,,Wanamahika,,,,,,,,,Institut Nyalumenge,,,,,,,,,,,,,,1207687287,node,,,,,secondaire,,,,GPS,,2009-05-16,,,,,,,,www.rgc.cd,,,,,,,,,,,,,,,
1207687300,node,0.1285415,29.311101,,,,,,,,,,,,,,,,,,,,,,,school,,«Ces données géographiques proviennent du Référentiel Géographique Commun (www.rgc.cd).»,,,,,,,,,,,,,,,,,,,,,,,,,,,,,,,,,,,,,,,,,,,,,,École Primaire Kihinga,,,,,,,,,,,,,,1207687300,node,,,,,primaire,,,,GPS,,2009-05-16,,,,,,,,www.rgc.cd,,,,,,,,,,,,,,,
1207687316,node,0.1291796,29.3112329,,,,,,,,,,,,,,,,,,,,,,,school,,«Ces données géographiques proviennent du Référentiel Géographique Commun (www.rgc.cd).»,,,,,,,,,,,,,,,,,,,,,,,,,,,,,,,,,,,,,,,,,,,,,,École Primaire Ahimidiwe,,,,,,,,,,,,,,1207687316,node,,,,,,,,,GPS,,2009-05-16,,,,,,,,www.rgc.cd,,,,,,,,,,,,,,,
1207687337,node,0.14285,29.3,,,,,,,,,,,,,,,,,,,,,,,school,,«Ces données géographiques proviennent du Référentiel Géographique Commun (www.rgc.cd).»,,,,,,,,,,,,,,,,,,,,,,,,,,,,,,,,,,,,,,,,,,,,,,École Primaire et Secondaire Sauvetage,,,,,,,,,,,,,,1207687337,node,,,,,,,,,GPS,,2009/05/16,,,,,,,,www.rgc.cd,,,,,,,,,,,,,,,
1207687348,node,0.25191,29.24971,,,,,,,,,,,,,,,,,,,,,,,school,,«Ces données géographiques proviennent du Référentiel Géographique Commun (www.rgc.cd).»,,,,,,,,,,,,,,,,,,,,,,,,,,,,,,,,,,,,,,,,,,,,,,École Primaire Bubanda II,,,,,,,,,,,,,,1207687348,node,,,,,primaire,,,,GPS,,2009/05/16,,,,,,,,www.rgc.cd,,,,,,,,,,,,,,,
1207687354,node,0.1175146,29.3183009,,,,,,,,,,,,,,,,,,,,,,,school,,Ces données géographiques proviennent du Référentiel Géographique Commun (www.rgc.cd).,,,,,,,,,,,,,,,,,,,,,,,,,,,,,,,,,,,,,,,,,,,,,,InstIitut La Vérité,,,,,,,,,,,,,,1207687354,node,,,,,,,,,GPS,,2009-05-16,,,,,,,,www.rgc.cd,,,,,,,,,,,,,,,
1207687368,node,0.21322,29.2716,,,,,,,,,,,,,,,,,,,,,,,school,,«Ces données géographiques proviennent du Référentiel Géographique Commun (www.rgc.cd).»,,,,,,,,,,2021-04-27,,,,,,,,,,,,,,,,,,,,,,,,,,,,,,,,,,,,École Primaire Butuhe,,,,,,,,,,,,,,1207687368,node,,,,,,,,,GPS,,2009/05/16,,,,,,,,www.rgc.cd,,,,,,,,,,,,,,,
1207687393,node,0.41551,29.16044,,,,,,,,,,,,,,,,,,,,,,,school,,«Ces données géographiques proviennent du Référentiel Géographique Commun (www.rgc.cd).»,,,,,,,,,,,,,,,,,,,,,,,,,,,,,,,,,,,,,,,,,,,,,,École primaire et secondaire Ngazi,,,,,,,,,,,,,,1207687393,node,,,,,primaire;secondaire,,,,GPS,,2009/05/16,,,,,,,,www.rgc.cd,,,,,,,,,,,,,,,
1207687400,node,0.1335741,29.3204096,,,,,,,,,,,,,,,,,,,,,,,school,,«Ces données géographiques proviennent du Référentiel Géographique Commun (www.rgc.cd).»,,,,,,,,,,,,,,,,,,,,,,,,,,,,,,,,,,,Vukuma,,,,,,,,,,,École Primaire Kilalu,,,,,,,,,,,,,,1207687400,node,,,,,primaire,,,,GPS;OSM,,2009-05-16,,,,,,,,www.rgc.cd,,,,,,,,,,,,,,,
1207687404,node,0.31562,29.21604,,,,,,,,,,,,,,,,,,,,,,,school,,«Ces données géographiques proviennent du Référentiel Géographique Commun (www.rgc.cd).»,,,,,,,,,,,,,,,,,,,,,,,,,,,,,,,,,,,,,,,,,,,,,,Ecole Primaire et Secondaire Mbilinga,,,,,,,,,,,,,,1207687404,node,,,,,primaire,,,,GPS,,2009/05/16,,,,,,,,www.rgc.cd,,,,,,,,,,,,,,,
1207687413,node,0.09442,29.3139454,,,,,,,,,,,,,,,,,,,,,,,school,,«Ces données géographiques proviennent du Référentiel Géographique Commun (www.rgc.cd).»,,,,,,,,,2021-08-23,,,,,,,,,,,,,,,,,,,,,,,,,,IBK,,Vuhika,,,,,,,,,Institut Katwa,,,,,,,,,,,,,,1207687413,node,,,,,secondaire,,,,GPS,,2009/05/16,,,,,,,,www.rgc.cd,,,,,,,,,,,,,,,
1207687416,node,0.1061334,29.279711,,,,,,,,,,,,,,,,,,,,,,,school,,«Ces données géographiques proviennent du Référentiel Géographique Commun (www.rgc.cd).»,,,,,,,,,,,,,,,,,,,,,,,,,,,,,,,,,,,,,,,,,,,,,,Institut Loyola,,,,,,,,,,,,,,1207687416,node,,,,,secondaire,,,,GPS,,2009/05/16,,,,,,,,www.rgc.cd,,,,,,,,,,,,,,,
1207687433,node,1.2078056,30.1823889,,,,,,,,,,,,,,,,,,,,,,,school,,«Ces données géographiques proviennent du Référentiel Géographique Commun (www.rgc.cd).»,,,,,,,,,,,,,,,,,,,,,,,,,,,,,,,,,,,,,,,,,,,,,,Gety,,,,,,,,,,,,,,1207687433,node,,,,,,,,,GPS,,2008/07/22,,,,,,,,www.rgc.cd,,,,,,,,,,,,,Q23088563,,
1207687436,node,0.1119628,29.3124466,,,,,,,,,,,,,,,,,,,,,,,school,,«Ces données géographiques proviennent du Référentiel Géographique Commun (www.rgc.cd).»,,,,,,,,,2021-08-23,,,,,,,,,,,,,,,,,,,,,,,,,,,,,,,,,,,,,École Primaire Advantiste Hekima,,,,,,,,,,,,,,1207687436,node,,,,,primaire,,,,GPS,,2009/05/16,,,,,,,,www.rgc.cd,,,,,,,,,,,,,,,
1207687447,node,0.71,29.5276944,,,,,,,,,,,,,,,,,,,,,,,school,,«Ces données géographiques proviennent du Référentiel Géographique Commun (www.rgc.cd).»,,,,,,,,,,2023-04-26,,,,,,,,,,,,,,,,,,,,,,,,,,,,,,,,,,,,École primaire Mayazola,,,,,,,,,,,,,,1207687447,node,,,,,,,,EP Mayazola,GPS,,2010/04/21,,,,,,,,www.rgc.cd,,,,,,,,,,,,,,,
1207687451,node,0.3982,29.19551,,,,,,,,,,,,,,,,,,,,,,,school,,«Ces données géographiques proviennent du Référentiel Géographique Commun (www.rgc.cd).»,,,,,,,,,,,,,,,,,,,,,,,,,,,,,,,,,,,,,,,,,,,,,,École primaire et secondaire Malondo,,,,,,,,,,,,,,1207687451,node,,,,,primaire,,,,GPS,,2009/05/16,,,,,,,,www.rgc.cd,,,,,,,,,,,,,,,
1207687457,node,0.1374657,29.3338323,,,,,,,,,,,,,,,,,,,,,,,school,,«Ces données géographiques proviennent du Référentiel Géographique Commun (www.rgc.cd).»,,,,,,,,,,,,,,,,,,,,,,,,,,,,,,,,,,,,,,,,,,,,,,Ecole Secondaire Livate,,,,,,,,,,,,,,1207687457,node,,,,,secondaire,,,,GPS,,2009-05-16,,,,,,,,www.rgc.cd,,,,,,,,,,,,,,,
1207687464,node,0.0967715,29.3122177,,,,,,,,,,,,,,,,,,,,,,,school,,«Ces données géographiques proviennent du Référentiel Géographique Commun (www.rgc.cd).»,,,,,,,,,,,,,,,,,,,,,,,,,,,,,,,,,,,IBK,,Vuhika,,,,,,,,,Institut Superieur Biblique de Katwa,,,,,,,,,,,,,,1207687464,node,,,,,,,,,GPS,,2009/05/16,,,,,,,,www.rgc.cd,,,,,,,,,,,,,,,
1207687468,node,0.2813,29.27207,,,,,,,,,,,,,,,,,,,,,,,school,,«Ces données géographiques proviennent du Référentiel Géographique Commun (www.rgc.cd).»,,,,,,,,,,,,,,,,,,,,,,,,,,,,,,,,,,,,,,,,,,,,,,École Secondaire Hekima,,,,,,,,,,,,,,1207687468,node,,,,,secondaire,,,,GPS,,2009/05/16,,,,,,,,www.rgc.cd,,,,,,,,,,,,,,,
1207687476,node,0.1248134,29.3034406,,,,,,,,,,,,,,,,,,,,,,,school,,«Ces données géographiques proviennent du Référentiel Géographique Commun (www.rgc.cd).»,,,,,,,,,,,,,,,,,,,,,,,,,,,,,,,,,,,,,,,,,,,,,,École Primaire Kitulu,,,,,,,,,,,,,,1207687476,node,,,,,primaire,,,EP Kitulu,GPS,,2009-05-16,,,,,,,,www.rgc.cd,,,,,,,,,,,,,,,
1207687484,node,0.395626,29.2244464,,,,,,,,,,,,,,,,,,,,,,,school,,«Ces données géographiques proviennent du Référentiel Géographique Commun (www.rgc.cd).»,,,,,,,,,,,,,,,,,,,,,,,,,,,,,,,,,,,,,,,,,,,,,,Ecole primaire et secondaire Visiki,,,,,,,,,,,,,,1207687484,node,,,,,primaire,,,,GPS,,2009/05/16,,,,,,,,www.rgc.cd,,,,,,,,,,,,,,,
1207687491,node,0.1397258,29.2994804,,,,,,,,,,,,,,,,,,,,,,,school,,«Ces données géographiques proviennent du Référentiel Géographique Commun (www.rgc.cd).»,,,,,,,,,,,,,,,,,,,,,,,,,,,,,,,,,,,,,,,,,,,,,,École Primaire Kirivata,,,,,,,,,,,,,,1207687491,node,,,,,primaire,,,,GPS,,2009-05-16,,,,,,,,www.rgc.cd,,,,,,,,,,,,,,,
1207687495,node,0.1359114,29.3011297,,,,,,,,,,,,,,,,,,,,,,,school,,«Ces données géographiques proviennent du Référentiel Géographique Commun (www.rgc.cd).»,,,,,,,,,,,,,,,,,,,,,,,,,,,,,,,,,,,,,,,,,,,,,,École Primaire Menge,,,,,,,,,,,,,,1207687495,node,,,,,,,,EP Mwenge,GPS,,2009-05-16,,,,,,,,www.rgc.cd,,,,,,,,,,,,,,,
1207687518,node,1.1455833,30.0242778,,,,,,,,,,,,,,,,,,,,,,,school,,«Ces données géographiques proviennent du Référentiel Géographique Commun (www.rgc.cd).»,,,,,,,,,,,,,,,,,,,,,,,,,,,,,,,,,,,,,,,,,,,,,,Sorodo II,,,,,,,,,,,,,,1207687518,node,,,,,,,,,GPS,,2008/11/05,,,,,,,,www.rgc.cd,,,,,,,,,,,,,,,
1207687539,node,0.0985,29.30495,,,,,,,,,,,,,,,,,,,,,,,school,,«Ces données géographiques proviennent du Référentiel Géographique Commun (www.rgc.cd).»,,,,,,,,,2021-09-16,2023-04-26,,,,,,,,,,,,,,,,,,,,,,,,,Kavughavugha,,Vuhika,,,,,,,,,École Primaire Nderembi,,,,,,,,,,,,,,1207687539,node,,,,,primaire,,,,GPS,,,,,,,,,,www.rgc.cd,,,,,,,,,,,,,,,
1207687556,node,0.39947,29.19624,,,,,,,,,,,,,,,,,,,,,,,school,,«Ces données géographiques proviennent du Référentiel Géographique Commun (www.rgc.cd).»,,,,,,,,,,,,,,,,,,,,,,,,,,,,,,,,,,,,,,,,,,,,,,École primaire Mambombo,,,,,,,,,,,,,,1207687556,node,,,,,primaire,,,,GPS,,2009/05/16,,,,,,,,www.rgc.cd,,,,,,,,,,,,,,,
1207687559,node,0.12175,29.3217,,,,,,,,,,,,,,,,,,,,,,,school,,«Ces données géographiques proviennent du Référentiel Géographique Commun (www.rgc.cd).»,,,,,,,,,,,,,,,,,,,,,,,,,,,,,,,,,,,,,,,,,,,,,,École Primaire Hanga,,,,,,,,,,,,,,1207687559,node,,,,,primaire,,,,GPS,,2009-05-16,,,,,,,,www.rgc.cd,,,,,,,,,,,,,,,
1207687562,node,0.122759,29.3113087,,,,,,,,,,,,,,,,,,,,,,,school,,«Ces données géographiques proviennent du Référentiel Géographique Commun (www.rgc.cd).»,,,,,,,,,,,,,,,,,,,,,,,,,,,,,,,,,,,,,,,,,,,,,,École primaire Katasohire,,,,,,,,,,,,,,1207687562,node,,,,,primaire,,,,GPS,,2009-05-16,,,,,,,,www.rgc.cd,,,,,,,,,,,,,,,
1207687572,node,0.1400897,29.3068437,,,,,,,,,,,,,,,,,,,,,,,school,,«Ces données géographiques proviennent du Référentiel Géographique Commun (www.rgc.cd).»,,,,,,,,,,,,,,,,,,,,,,,,,,,,,,,,,,,,,,,,,,,,,,Institut Ngununu,,,,,,,,,,,,,,1207687572,node,,,,,secondaire,,,,GPS,,2009-05-16,,,,,,,,www.rgc.cd,,,,,,,,,,,,,,,
1207687586,node,0.1383914,29.3074935,,,,,,,,,,,,,,,,,,,,,,,school,,«Ces données géographiques proviennent du Référentiel Géographique Commun (www.rgc.cd).»,,,,,,,,,,,,,,,,,,,,,,,,,,,,,,,,,,,,,,,,,,,,,,Complexe Scolaire Vuvatsi,,,,,,,,,,,,,,1207687586,node,,,,,,,,CS Vuvatsi,GPS,,2009-05-16,,,,,,,,www.rgc.cd,,,,,,,,,,,,,,,
1207687603,node,0.1317531,29.3295763,,,,,,,,,,,,,,,,,,,,,,,school,,«Ces données géographiques proviennent du Référentiel Géographique Commun (www.rgc.cd).»,,,,,,,,,,,,,,,,,,,,,,,,,,,,,,,,,,,,,,,,,,,,,,École Primaire Heri,,,,,,,,,,,,,,1207687603,node,,,,,primaire,,,,GPS,,2009-05-16,,,,,,,,www.rgc.cd,,,,,,,,,,,,,,,
1207687635,node,0.1521622,29.3078234,,,,,,,,,,,,,,,,,,,,,,,school,,«Ces données géographiques proviennent du Référentiel Géographique Commun (www.rgc.cd).»,,,,,,,,,,,,,,,,,,,,,,,,,,,,,,,,,,,,,,,,,,,,,,Institut Tuyitsinge,,,,,,,,,,,,,,1207687635,node,,,,,primaire,,,,GPS,,2009-05-16,,,,,,,,www.rgc.cd,,,,,,,,,,,,,,,
1207687644,node,0.32826,29.24898,,,,,,,,,,,,,,,,,,,,,,,school,,«Ces données géographiques proviennent du Référentiel Géographique Commun (www.rgc.cd).»,,,,,,,,,,2023-05-02,,,,,,,,,,,,,,,,,,,,,,,,,,,,,,,,,,,,École Primaire et Secondaire Mikala,,,,,,,,,,,,,,1207687644,node,,,,,primaire,,,,GPS,,2009/05/16,,,,,,,,www.rgc.cd,,,,,,,,,,,,,,,
1213087362,node,0.022115,29.161467,,,,,,,,,,,,,,,,,,,,,,,school,,«Ces données géographiques proviennent du Référentiel Géographique Commun (www.rgc.cd).»,,,,,,,,,,,,,,,,,,,,,,,,,,,,,,,,,,,,,,,,,,,,,,École primaire et secondaire Vusamba,,,,,,,,,,,,,,1213087362,node,,,,,primaire,,,,GPS,,2009/05/16,,,,,,,,www.rgc.cd,,,,,,,,,,,,,,,
1213087363,node,0.04176,29.064797,,,,,,,,,,,,,,,,,,,,,,,school,,«Ces données géographiques proviennent du Référentiel Géographique Commun (www.rgc.cd).»,,,,,,,,,,,,,,,,,,,,,,,,,,,,,,,,,,,,,,,,,,,,,,École primaire et secondaire Musitu Et Mabwe,,,,,,,,,,,,,,1213087363,node,,,,,primaire;secondaire,,,,GPS,,2009/05/16,,,,,,,,www.rgc.cd,,,,,,,,,,,,,,,
1213087364,node,-0.1241927,29.3942153,,,,,,,,,,,,,,,,,,,,,,,school,,«Ces données géographiques proviennent du Référentiel Géographique Commun (www.rgc.cd).»,,,,,,,,,,,,,,,,,,,,,,,,,,,,,,,,,,,,,,,,,,,,,,Institut Kyavirimu,,,,,,,,,,,,,,1213087364,node,,,,,,,,,GPS,,2009/05/16,,,,,,,,www.rgc.cd,,,,,,,,,,,,,,,
1213087366,node,-0.077387,29.135341,,,,,,,,,,,,,,,,,,,,,,,school,,«Ces données géographiques proviennent du Référentiel Géographique Commun (www.rgc.cd).»,,,,,,,,,,,,,,,,,,,,,,,,,,,,,,,,,,,,,,,,,,,,,,École primaire Musasa,,,,,,,,,,,,,,1213087366,node,,,,,primaire,,,,GPS,,2009/05/16,,,,,,,,www.rgc.cd,,,,,,,,,,,,,,,
1213087367,node,0.0776381,29.4096378,,,,,,,,,,,,,,,,,,,,,,,school,,«Ces données géographiques proviennent du Référentiel Géographique Commun (www.rgc.cd).»,,,,,,,,,,,,,,,,,,,,,,,,,,,,,,,,,,,,,,,,,,,,,,École primaire Musangalya,,,,,,,,,,,,,,1213087367,node,,,,,primaire,,,,GPS,,2009/05/16,,,,,,,,www.rgc.cd,,,,,,,,,,,,,,,
1213087368,node,0.060722,29.058826,,,,,,,,,,,,,,,,,,,,,,,school,,«Ces données géographiques proviennent du Référentiel Géographique Commun (www.rgc.cd).»,,,,,,,,,,,,,,,,,,,,,,,,,,,,,,,,,,,,,,,,,,,,,,École primaire Mavoghu,,,,,,,,,,,,,,1213087368,node,,,,,primaire,,,,GPS,,2009/05/16,,,,,,,,www.rgc.cd,,,,,,,,,,,,,,,
1213087369,node,-0.0287,29.437877,,,,,,,,,,,,,,,,,,,,,,,school,,«Ces données géographiques proviennent du Référentiel Géographique Commun (www.rgc.cd).»,,,,,,,,,,,,,,,,,,,,,,,,,,,,,,,,,,,,,,,,,,,,,,Ecole primaire Muvugha,,,,,,,,,,,,,,1213087369,node,,,,,primaire,,,,GPS,,2009/05/16,,,,,,,,www.rgc.cd,,,,,,,,,,,,,,,
1213087370,node,-0.097201,29.388631,,,,,,,,,,,,,,,,,,,,,,,school,,«Ces données géographiques proviennent du Référentiel Géographique Commun (www.rgc.cd).»,,,,,,,,,,,,,,,,,,,,,,,,,,,,,,,,,,,,,,,,,,,,,,École primaire Ngitse,,,,,,,,,,,,,,1213087370,node,,,,,primaire,,,,GPS,,2009/05/16,,,,,,,,www.rgc.cd,,,,,,,,,,,,,,,
1213087371,node,0.086359,29.158882,,,,,,,,,,,,,,,,,,,,,,,school,,«Ces données géographiques proviennent du Référentiel Géographique Commun (www.rgc.cd).»,,,,,,,,,,,,,,,,,,,,,,,,,,,,,,,,,,,,,,,,,,,,,,École primaire Kavasinza,,,,,,,,,,,,,,1213087371,node,,,,,primaire,,,,GPS,,2009/05/16,,,,,,,,www.rgc.cd,,,,,,,,,,,,,,,
1213087372,node,0.0625326,29.3672841,,,,,,,,,,,,,,,,,,,,,,,school,,«Ces données géographiques proviennent du Référentiel Géographique Commun (www.rgc.cd).»,,,,,,,,,,,,,,,,,,,,,,Needs to be placed,,,,,,,,,,,,,,,,,,,,,,,,Église Primaire Magheria,,,,,,,,,,,,,,1213087372,node,,,,,,,,,GPS,,2010/04/21,,,,,,,,www.rgc.cd,,,,,,,,,,,,,,,
1213087374,node,-0.081114,29.453054,,,,,,,,,,,,,,,,,,,,,,,school,,«Ces données géographiques proviennent du Référentiel Géographique Commun (www.rgc.cd).»,,,,,,,,,,,,,,,,,,,,,,,,,,,,,,,,,,,,,,,,,,,,,,Ecole primaire et secondaire Burusi,,,,,,,,,,,,,,1213087374,node,,,,,primaire,,,,GPS,,2009/05/16,,,,,,,,www.rgc.cd,,,,,,,,,,,,,,,
1213087376,node,0.006231,28.801357,,,,,,,,,,,,,,,,,,,,,,,school,,«Ces données géographiques proviennent du Référentiel Géographique Commun (www.rgc.cd).»,,,,,,,,,,,,,,,,,,,,,,,,,,,,,,,,,,,,,,,,,,,,,,École primaire Cbca Bunande,,,,,,,,,,,,,,1213087376,node,,,,,primaire,,,,GPS,,2009/05/16,,,,,,,,www.rgc.cd,,,,,,,,,,,,,,,
1213087377,node,0.019128,29.159436,,,,,,,,,,,,,,,,,,,,,,,school,,«Ces données géographiques proviennent du Référentiel Géographique Commun (www.rgc.cd).»,,,,,,,,,,,,,,,,,,,,,,,,,,,,,,,,,,,,,,,,,,,,,,Ecole primaire Busamba,,,,,,,,,,,,,,1213087377,node,,,,,primaire,,,,GPS,,2009/05/16,,,,,,,,www.rgc.cd,,,,,,,,,,,,,,,
1213087378,node,-0.248189,29.417682,,,,,,,,,,,,,,,,,,,,,,,school,,«Ces données géographiques proviennent du Référentiel Géographique Commun (www.rgc.cd).»,,,,,,,,,,,,,,,,,,,,,,,,,,,,,,,,,,,,,,,,,,,,,,Ecole secondaire Kauli,,,,,,,,,,,,,,1213087378,node,,,,,,,,,GPS,,2009/05/16,,,,,,,,www.rgc.cd,,,,,,,,,,,,,,,
1213087379,node,-0.043847,29.495146,,,,,,,,,,,,,,,,,,,,,,,school,,«Ces données géographiques proviennent du Référentiel Géographique Commun (www.rgc.cd).»,,,,,,,,,,,,,,,,,,,,,,,,,,,,,,,,,,,,,,,,,,,,,,Ecole primaire et secondaire Vusorongi,,,,,,,,,,,,,,1213087379,node,,,,,primaire,,,,GPS,,2009/05/16,,,,,,,,www.rgc.cd,,,,,,,,,,,,,,,
1213087380,node,-0.057677,29.3028598,,,,,,,,,,,,,,,,,,,,,,,school,,«Ces données géographiques proviennent du Référentiel Géographique Commun (www.rgc.cd).»,,,,,,,,,,,,,,,,,,,,,,,,,,,,,,,,,,,,,,,,,,,,,,Institut Pédagogique Adventiste de Lukanga,,,,,,,,,,Ecole secondaire Lukanga,,,,1213087380,node,,,,,,,,,GPS,,2009/05/16,,,,,,,,www.rgc.cd,,,,,,,,,,,,,,,
1213087381,node,-0.042343,29.502651,,,,,,,,,,,,,,,,,,,,,,,school,,«Ces données géographiques proviennent du Référentiel Géographique Commun (www.rgc.cd).»,,,,,,,,,,,,,,,,,,,,,,,,,,,,,,,,,,,,,,,,,,,,,,Ecole primaire Vurondo,,,,,,,,,,,,,,1213087381,node,,,,,primaire,,,,GPS,,2009/05/16,,,,,,,,www.rgc.cd,,,,,,,,,,,,,,,
1213087382,node,0.02106,29.158588,,,,,,,,,,,,,,,,,,,,,,,school,,«Ces données géographiques proviennent du Référentiel Géographique Commun (www.rgc.cd).»,,,,,,,,,,,,,,,,,,,,,,,,,,,,,,,,,,,,,,,,,,,,,,École primaire Katsunga,,,,,,,,,,,,,,1213087382,node,,,,,primaire,,,,GPS,,2009/05/16,,,,,,,,www.rgc.cd,,,,,,,,,,,,,,,
1213087383,node,0.063167,29.008791,,,,,,,,,,,,,,,,,,,,,,,school,,«Ces données géographiques proviennent du Référentiel Géographique Commun (www.rgc.cd).»,,,,,,,,,,,,,,,,,,,,,,,,,,,,,,,,,,,,,,,,,,,,,,École primaire Matembo,,,,,,,,,,,,,,1213087383,node,,,,,primaire,,,,GPS,,2009/05/16,,,,,,,,www.rgc.cd,,,,,,,,,,,,,,,
1213087385,node,0.058822,29.3616756,,,,,,,,,,,,,,,,,,,,,,,school,,«Ces données géographiques proviennent du Référentiel Géographique Commun (www.rgc.cd).»,,,,,,,,,,,,,,,,,,,,,,,,,,,,,,,,,,,,,,,,,,,,,,École Primaire Bayangwa,,,,,,,,,,,,,,1213087385,node,,,,,,,,,GPS,,2010/04/21,,,,,,,,www.rgc.cd,,,,,,,,,,,,,,,
1213087387,node,0.0390868,29.3437212,,,,,,,,,,,,,,,,,,,,,,,school,,«Ces données géographiques proviennent du Référentiel Géographique Commun (www.rgc.cd).»,,,,,,,,,,,,,,,,,,,,,,,,,,,,,,,,,,,,,,,,,,,,,,École Primaire Ngeleza,,,,,,,,,,,,,,1213087387,node,,,,,,,,,GPS,,2009/05/16,,,,,,,,www.rgc.cd,,,,,,,,,,,,,,,
1213087388,node,0.013147,29.070249,,,,,,,,,,,,,,,,,,,,,,,school,,«Ces données géographiques proviennent du Référentiel Géographique Commun (www.rgc.cd).»,,,,,,,,,,,,,,,,,,,,,,,,,,,,,,,,,,,,,,,,,,,,,,Ecole primaire Katembo,,,,,,,,,,,,,,1213087388,node,,,,,primaire,,,,GPS,,2009/05/16,,,,,,,,www.rgc.cd,,,,,,,,,,,,,,,
1213087389,node,0.061324,29.055163,,,,,,,,,,,,,,,,,,,,,,,school,,«Ces données géographiques proviennent du Référentiel Géographique Commun (www.rgc.cd).»,,,,,,,,,,,,,,,,,,,,,,,,,,,,,,,,,,,,,,,,,,,,,,Ecole primaire Buyinga,,,,,,,,,,,,,,1213087389,node,,,,,primaire,,,,GPS,,2009/05/16,,,,,,,,www.rgc.cd,,,,,,,,,,,,,,,
1213087390,node,-0.290569,29.401239,,,,,,,,,,,,,,,,,,,,,,,school,,«Ces données géographiques proviennent du Référentiel Géographique Commun (www.rgc.cd).»,,,,,,,,,,,,,,,,,,,,,,,,,,,,,,,,,,,,,,,,,,,,,,Kisima,,,,,,,,,,,,,,1213087390,node,,,,,,,,,GPS,,2009/05/16,,,,,,,,www.rgc.cd,,,,,,,,,,,,,,,
1213087391,node,-0.3655084,29.3143531,,,,,,,,,,,,,,,,,,,,,,,school,,«Ces données géographiques proviennent du Référentiel Géographique Commun (www.rgc.cd).»,,,,,,,,,,,,,,,,,,,,,,,,,,,,,,,,,,,,,,,,,,,,,,Ecole secondaire Kalimba,,,,,,,,,,,,,,1213087391,node,,,,,,,,,GPS,,2009/05/16,,,,,,,,www.rgc.cd,,,,,,,,,,,,,,,
1213087392,node,0.08935,29.159598,,,,,,,,,,,,,,,,,,,,,,,school,,«Ces données géographiques proviennent du Référentiel Géographique Commun (www.rgc.cd).»,,,,,,,,,,,,,,,,,,,,,,,,,,,,,,,,,,,,,,,,,,,,,,Ecole primaire Kivuwa,,,,,,,,,,,,,,1213087392,node,,,,,primaire,,,,GPS,,2009/05/16,,,,,,,,www.rgc.cd,,,,,,,,,,,,,,,
1213087395,node,-0.203201,29.301804,,,,,,,,,,,,,,,,,,,,,,,school,,«Ces données géographiques proviennent du Référentiel Géographique Commun (www.rgc.cd).»,,,,,,,,,,,,,,,,,,,,,,,,,,,,,,,,,,,,,,,,,,,,,,Ecole primaire Virenge,,,,,,,,,,,,,,1213087395,node,,,,,primaire,,,,GPS,,2009/05/16,,,,,,,,www.rgc.cd,,,,,,,,,,,,,,,
1213087396,node,-0.079415,29.454511,,,,,,,,,,,,,,,,,,,,,,,school,,«Ces données géographiques proviennent du Référentiel Géographique Commun (www.rgc.cd).»,,,,,,,,,,,,,,,,,,,,,,,,,,,,,,,,,,,,,,,,,,,,,,Ecole primaire Tuvuke / Burusi,,,,,,,,,,,,,,1213087396,node,,,,,primaire,,,,GPS,,2009/05/16,,,,,,,,www.rgc.cd,,,,,,,,,,,,,,,
1213087397,node,0.064145,29.280671,,,,,,,,,,,,,,,,,,,,,,,school,,«Ces données géographiques proviennent du Référentiel Géographique Commun (www.rgc.cd).»,,,,,,,,,,,,,,,,,,,,,,,,,,,,,,,,,,,,,,,,,,,,,,École Primaire Ndando,,,,,,,,,,,,,,1213087397,node,,,,,,,,,GPS,,2009/05/16,,,,,,,,www.rgc.cd,,,,,,,,,,,,,,,
1213087399,node,0.072912,29.084326,,,,,,,,,,,,,,,,,,,,,,,school,,«Ces données géographiques proviennent du Référentiel Géographique Commun (www.rgc.cd).»,,,,,,,,,,,,,,,,,,,,,,,,,,,,,,,,,,,,,,,,,,,,,,Ecole primaire Kanyamulamba,,,,,,,,,,,,,,1213087399,node,,,,,primaire,,,,GPS,,2009/05/16,,,,,,,,www.rgc.cd,,,,,,,,,,,,,,,
1213087400,node,-0.0023049,29.498892,,,,,,,,,,,,,,,,,,,,,,,school,,«Ces données géographiques proviennent du Référentiel Géographique Commun (www.rgc.cd).»,,,,,,,,,,,,,,,,,,,,,,,,,,,,,,,,,,,,,,,,,,,,,,Ecole primaire Kivuwe,,,,,,,,,,,,,,1213087400,node,,,,,primaire,,,,GPS,,2009/05/16,,,,,,,,www.rgc.cd,,,,,,,,,,,,,,,
1213087401,node,-0.1347767,29.2666818,,,,,,,,,,,,,,,,,,,,,,,school,,«Ces données géographiques proviennent du Référentiel Géographique Commun (www.rgc.cd).»,,,,,,,,,,,,,,,,,,,,,,,,,,,,,,,,,,,,,,,,,,,,,,Ecole secondaire Mulo,,,,,,,,,,,,,,1213087401,node,,,,,,,,,GPS,,2009/05/16,,,,,,,,www.rgc.cd,,,,,,,,,,,,,,,
1213087402,node,-0.031163,29.37762,,,,,,,,,,,,,,,,,,,,,,,school,,«Ces données géographiques proviennent du Référentiel Géographique Commun (www.rgc.cd).»,,,,,,,,,,,,,,,,,,,,,,,,,,,,,,,,,,,,,,,,,,,,,,École primaire Katiri,,,,,,,,,,,,,,1213087402,node,,,,,primaire,,,,GPS,,2009/05/16,,,,,,,,www.rgc.cd,,,,,,,,,,,,,,,
1213087403,node,0.0317193,29.2098927,,,,,,,,,,,,,,,,,,,,,,,school,,«Ces données géographiques proviennent du Référentiel Géographique Commun (www.rgc.cd).»,,,,,,,,,,,,,,,,,,,,,,,,,,,,,,,,,,,,,,,,,,,,,,Ecole primaire Kasinga,,,,,,,,,,,,,,1213087403,node,,,,,primaire,,,,GPS,,2009/05/16,,,,,,,,www.rgc.cd,,,,,,,,,,,,,,,
1213087405,node,-0.000426,29.533243,,,,,,,,,,,,,,,,,,,,,,,school,,«Ces données géographiques proviennent du Référentiel Géographique Commun (www.rgc.cd).»,,,,,,,,,,,,,,,,,,,,,,,,,,,,,,,,,,,,,,,,,,,,,,Ecole primaire Kyangendi,,,,,,,,,,,,,,1213087405,node,,,,,primaire,,,,GPS,,2009/05/16,,,,,,,,www.rgc.cd,,,,,,,,,,,,,,,
1213087406,node,-0.002898,29.523677,,,,,,,,,,,,,,,,,,,,,,,school,,«Ces données géographiques proviennent du Référentiel Géographique Commun (www.rgc.cd).»,,,,,,,,,,,,,,,,,,,,,,,,,,,,,,,,,,,,,,,,,,,,,,Ecole secondaire Kyangendi,,,,,,,,,,,,,,1213087406,node,,,,,,,,,GPS,,2009/05/16,,,,,,,,www.rgc.cd,,,,,,,,,,,,,,,
1213087407,node,-0.0319035,29.1442662,,,,,,,,,,,,,,,,,,,,,,,school,,«Ces données géographiques proviennent du Référentiel Géographique Commun (www.rgc.cd).»,,,,,,,,,,,,,,,,,,,,,,,,,,,,,,,,,,,,,,,,,,,,,,Ecole primaire Masumo,,,,,,,,,,,,,,1213087407,node,,,,,primaire,,,,GPS,,2009/05/16,,,,,,,,www.rgc.cd,,,,,,,,,,,,,,,
1213087409,node,0.095526,28.975012,,,,,,,,,,,,,,,,,,,,,,,school,,«Ces données géographiques proviennent du Référentiel Géographique Commun (www.rgc.cd).»,,,,,,,,,,,,,,,,,,,,,,,,,,,,,,,,,,,,,,,,,,,,,,Ecole primaire Kasiyiro,,,,,,,,,,,,,,1213087409,node,,,,,primaire,,,,GPS,,2009/05/16,,,,,,,,www.rgc.cd,,,,,,,,,,,,,,,
1213087410,node,0.0576893,28.9061133,,,,,,,,,,,,,,,,,,,,,,,school,,«Ces données géographiques proviennent du Référentiel Géographique Commun (www.rgc.cd).»,,,,,,,,,,,,,,,,,,,,,,,,,,,,,,,,,,,,,,,,,,,,,,Ecole primaire Ceca20 Matuna,,,,,,,,,,,,,,1213087410,node,,,,,primaire,,,,GPS,,2009/05/16,,,,,,,,www.rgc.cd,,,,,,,,,,,,,,,
1213087411,node,-0.369235,29.345057,,,,,,,,,,,,,,,,,,,,,,,school,,«Ces données géographiques proviennent du Référentiel Géographique Commun (www.rgc.cd).»,,,,,,,,,,,,,,,,,,,,,,,,,,,,,,,,,,,,,,,,,,,,,,Ecole secondaire Matolu,,,,,,,,,,,,,,1213087411,node,,,,,,,,,GPS,,2009/05/16,,,,,,,,www.rgc.cd,,,,,,,,,,,,,,,
1213087413,node,0.012895,29.013831,,,,,,,,,,,,,,,,,,,,,,,school,,«Ces données géographiques proviennent du Référentiel Géographique Commun (www.rgc.cd).»,,,,,,,,,,,,,,,,,,,,,,,,,,,,,,,,,,,,,,,,,,,,,,École primaire Kasiyiro,,,,,,,,,,,,,,1213087413,node,,,,,primaire,,,,GPS,,2009/05/16,,,,,,,,www.rgc.cd,,,,,,,,,,,,,,,
1213087414,node,0.074447,29.124266,,,,,,,,,,,,,,,,,,,,,,,school,,«Ces données géographiques proviennent du Référentiel Géographique Commun (www.rgc.cd).»,,,,,,,,,,,,,,,,,,,,,,,,,,,,,,,,,,,,,,,,,,,,,,École primaire Ndeko,,,,,,,,,,,,,,1213087414,node,,,,,primaire,,,,GPS,,2009/05/16,,,,,,,,www.rgc.cd,,,,,,,,,,,,,,,
1213087415,node,-0.029139,29.390294,,,,,,,,,,,,,,,,,,,,,,,school,,«Ces données géographiques proviennent du Référentiel Géographique Commun (www.rgc.cd).»,,,,,,,,,,07/03/2023,,,,,,,,,,,,,,,,,,,,,,,,,,,,,,,,,,,,Ecole primaire Itunduliro,,,,,,,,,,,,,,1213087415,node,,,,,primaire,,,,GPS,,2009/05/16,,,,,,,,www.rgc.cd,,,,,,,,,,,,,,,
1213087416,node,-0.014768,29.420701,,,,,,,,,,,,,,,,,,,,,,,school,,«Ces données géographiques proviennent du Référentiel Géographique Commun (www.rgc.cd).»,,,,,,,,,,,,,,,,,,,,,,,,,,,,,,,,,,,,,,,,,,,,,,Ecole primaire Bukembe,,,,,,,,,,,,,,1213087416,node,,,,,primaire,,,,GPS,,2009/05/16,,,,,,,,www.rgc.cd,,,,,,,,,,,,,,,
1213087417,node,-0.278399,29.299314,,,,,,,,,,,,,,,,,,,,,,,school,,«Ces données géographiques proviennent du Référentiel Géographique Commun (www.rgc.cd).»,,,,,,,,,,,,,,,,,,,,,,,,,,,,,,,,,,,,,,,,,,,,,,Ecole primaire Kavisegho,,,,,,,,,,,,,,1213087417,node,,,,,primaire,,,,GPS,,2009/05/16,,,,,,,,www.rgc.cd,,,,,,,,,,,,,,,
1213087419,node,-0.0157634,29.4191386,,,,,,,,,,,,,,,,,,,,,,,school,,«Ces données géographiques proviennent du Référentiel Géographique Commun (www.rgc.cd).»,,,,,,,,,,,,,,,,,,,,,,,,,,,,,,,,,,,,,,,,,,,,,,Ecole primaire Vayana,,,,,,,,,,,,,,1213087419,node,,,,,primaire,,,,GPS,,2009/05/16,,,,,,,,www.rgc.cd,,,,,,,,,,,,,,,
1213087420,node,0.040709,29.316429,,,,,,,,,,,,,,,,,,,,,,,school,,«Ces données géographiques proviennent du Référentiel Géographique Commun (www.rgc.cd).»,,,,,,,,,,,,,,,,,,,,,,,,,,,,,,,,,,,,,,,,,,,,,,École Primaire Bughumirya,,,,,,,,,,,,,,1213087420,node,,,,,,,,,GPS,,2009/05/16,,,,,,,,www.rgc.cd,,,,,,,,,,,,,,,
1213087423,node,0.066668,29.096996,,,,,,,,,,,,,,,,,,,,,,,school,,«Ces données géographiques proviennent du Référentiel Géographique Commun (www.rgc.cd).»,,,,,,,,,,,,,,,,,,,,,,,,,,,,,,,,,,,,,,,,,,,,,,Ecole primaire Sana,,,,,,,,,,,,,,1213087423,node,,,,,primaire,,,,GPS,,2009/05/16,,,,,,,,www.rgc.cd,,,,,,,,,,,,,,,
1213087424,node,0.028692,29.103747,,,,,,,,,,,,,,,,,,,,,,,school,,«Ces données géographiques proviennent du Référentiel Géographique Commun (www.rgc.cd).»,,,,,,,,,,,,,,,,,,,,,,,,,,,,,,,,,,,,,,,,,,,,,,Ecole primaire Mwangaza,,,,,,,,,,,,,,1213087424,node,,,,,primaire,,,,GPS,,2009/05/16,,,,,,,,www.rgc.cd,,,,,,,,,,,,,,,
1213087425,node,0.033155,29.287761,,,,,,,,,,,,,,,,,,,,,,,school,,«Ces données géographiques proviennent du Référentiel Géographique Commun (www.rgc.cd).»,,,,,,,,,,,,,,,,,,,,,,,,,,,,,,,,,,,,,,,,,,,,,,École primaire Vulimira,,,,,,,,,,,,,,1213087425,node,,,,,primaire,,,,GPS,,2009/05/16,,,,,,,,www.rgc.cd,,,,,,,,,,,,,,,
1213087428,node,-0.002667,29.523514,,,,,,,,,,,,,,,,,,,,,,,school,,«Ces données géographiques proviennent du Référentiel Géographique Commun (www.rgc.cd).»,,,,,,,,,,,,,,,,,,,,,,,,,,,,,,,,,,,,,,,,,,,,,,École primaire Vulimira,,,,,,,,,,,,,,1213087428,node,,,,,primaire,,,,GPS,,2009/05/16,,,,,,,,www.rgc.cd,,,,,,,,,,,,,,,
1213087434,node,0.025472,29.363266,,,,,,,,,,,,,,,,,,,,,,,school,,«Ces données géographiques proviennent du Référentiel Géographique Commun (www.rgc.cd).»,,,,,,,,,,,,,,,,,,,,,,,,,,,,,,,,,,,,,,,,,,,,,,École primaire Kirungu,,,,,,,,,,,,,,1213087434,node,,,,,primaire,,,,GPS,,2009/05/16,,,,,,,,www.rgc.cd,,,,,,,,,,,,,,,
1213152521,node,-6.1263056,24.5326389,,,,,,,,,,,,,,,,,,,,,,,school,,«Ces données géographiques proviennent du Référentiel Géographique Commun (www.rgc.cd).»,,,,,,,,,,,,,,,,,,,,,,,,,,,,,,,,,,,,,,,,,,,,,,Ecole primaire Yakanyama,,,,,,,,,,,,,,1213152521,node,,,,,primaire,,,,GPS,,2010/04/21,,,,,,,,www.rgc.cd,,,,,,,,,,,,,,,
1213152525,node,-6.1301111,24.4907778,,,,,,,,,,,,,,,,,,,,,,,school,,«Ces données géographiques proviennent du Référentiel Géographique Commun (www.rgc.cd).»,,,,,,,,,,,,,,,,,,,,,,,,,,,,,,,,,,,,,,,,,,,,,,Ecole primaire Kintukimune,,,,,,,,,,,,,,1213152525,node,,,,,primaire,,,,GPS,,2010/04/21,,,,,,,,www.rgc.cd,,,,,,,,,,,,,,,
1213152549,node,-6.1348333,24.4884167,,,,,,,,,,,,,,,,,,,,,,,school,,«Ces données géographiques proviennent du Référentiel Géographique Commun (www.rgc.cd).»,,,,,,,,,,,,,,,,,,,,,,,,,,,,,,,,,,,,,,,,,,,,,,Ecole primaire Kalambayi,,,,,,,,,,,,,,1213152549,node,,,,,primaire,,,,GPS,,2010/04/21,,,,,,,,www.rgc.cd,,,,,,,,,,,,,,,
1213152557,node,-6.1416667,24.4762222,,,,,,,,,,,,,,,,,,,,,,,school,,«Ces données géographiques proviennent du Référentiel Géographique Commun (www.rgc.cd).»,,,,,,,,,,,,,,,,,,,,,,,,,,,,,,,,,,,,,,,,,,,,,,École primaire Shimatayi,,,,,,,,,,,,,,1213152557,node,,,,,primaire,,,,GPS,,2010/04/21,,,,,,,,www.rgc.cd,,,,,,,,,,,,,,,
1213152565,node,-6.1493889,24.4661389,,,,,,,,,,,,,,,,,,,,,,,school,,«Ces données géographiques proviennent du Référentiel Géographique Commun (www.rgc.cd).»,,,,,,,,,,,,,,,,,,,,,,,,,,,,,,,,,,,,,,,,,,,,,,École primaire Tuendeyi,,,,,,,,,,,,,,1213152565,node,,,,,primaire,,,,GPS,,2010/04/21,,,,,,,,www.rgc.cd,,,,,,,,,,,,,,,
1213152573,node,-6.1416667,24.4896944,,,,,,,,,,,,,,,,,,,,,,,school,,«Ces données géographiques proviennent du Référentiel Géographique Commun (www.rgc.cd).»,,,,,,,,,,,,,,,,,,,,,,,,,,,,,,,,,,,,,,,,,,,,,,Ecole primaire Lukubama,,,,,,,,,,,,,,1213152573,node,,,,,primaire,,,,GPS,,2010/04/21,,,,,,,,www.rgc.cd,,,,,,,,,,,,,,,
1213152580,node,-6.1301111,24.4902222,,,,,,,,,,,,,,,,,,,,,,,school,,«Ces données géographiques proviennent du Référentiel Géographique Commun (www.rgc.cd).»,,,,,,,,,,,,,,,,,,,,,,,,,,,,,,,,,,,,,,,,,,,,,,École primaire Nambutwile,,,,,,,,,,,,,,1213152580,node,,,,,primaire,,,,GPS,,2010/04/21,,,,,,,,www.rgc.cd,,,,,,,,,,,,,,,
1213160139,node,-6.1180999,24.512553,,,,,,,,,,,,,,,,,,,,,,,school,,«Ces données géographiques proviennent du Référentiel Géographique Commun (www.rgc.cd).»,,,,,,,,,,,,,,,,,,,,,,,,,,,,,,,,,,,,,,,,,,,,,,École primaire Shimatayi,,,,,,,,,,,,,,1213160139,node,,,,,primaire,,,,GPS,,2010/04/21,,,,,,,,www.rgc.cd,,,,,,,,,,,,,,,
1213160144,node,-6.1065439,24.5271086,,,,,,,,,,,,,,,,,,,,,,,school,,«Ces données géographiques proviennent du Référentiel Géographique Commun (www.rgc.cd).»,,,,,,,,,,,,,,,,,,,,,,,,,,,,,,,,,,,,,,,,,,,,,,Ecole primaire Kintukimune,,,,,,,,,,,,,,1213160144,node,,,,,primaire,,,,GPS,,2010/04/21,,,,,,,,www.rgc.cd,,,,,,,,,,,,,,,
1213160150,node,-6.1112663,24.5247475,,,,,,,,,,,,,,,,,,,,,,,school,,«Ces données géographiques proviennent du Référentiel Géographique Commun (www.rgc.cd).»,,,,,,,,,,,,,,,,,,,,,,,,,,,,,,,,,,,,,,,,,,,,,,École primaire Kalambayi,,,,,,,,,,,,,,1213160150,node,,,,,primaire,,,,GPS,,2010/04/21,,,,,,,,www.rgc.cd,,,,,,,,,,,,,,,
1213160155,node,-6.1065439,24.526553,,,,,,,,,,,,,,,,,,,,,,,school,,«Ces données géographiques proviennent du Référentiel Géographique Commun (www.rgc.cd).»,,,,,,,,,,,,,,,,,,,,,,,,,,,,,,,,,,,,,,,,,,,,,,Ecole primaire Nambutwile,,,,,,,,,,,,,,1213160155,node,,,,,primaire,,,,GPS,,2010/04/21,,,,,,,,www.rgc.cd,,,,,,,,,,,,,,,
1213160168,node,-6.1027381,24.5689697,,,,,,,,,,,,,,,,,,,,,,,school,,«Ces données géographiques proviennent du Référentiel Géographique Commun (www.rgc.cd).»,,,,,,,,,,,,,,,,,,,,,,,,,,,,,,,,,,,,,,,,,,,,,,Ecole primaire Yakanyama,,,,,,,,,,,,,,1213160168,node,,,,,primaire,,,,GPS,,2010/04/21,,,,,,,,www.rgc.cd,,,,,,,,,,,,,,,
1213160170,node,-6.1258225,24.5024697,,,,,,,,,,,,,,,,,,,,,,,school,,«Ces données géographiques proviennent du Référentiel Géographique Commun (www.rgc.cd).»,,,,,,,,,,,,,,,,,,,,,,,,,,,,,,,,,,,,,,,,,,,,,,Ecole primaire Tuendeyi,,,,,,,,,,,,,,1213160170,node,,,,,primaire,,,,GPS,,2010/04/21,,,,,,,,www.rgc.cd,,,,,,,,,,,,,,,
1213160181,node,-6.1180999,24.5260253,,,,,,,,,,,,,,,,,,,,,,,school,,«Ces données géographiques proviennent du Référentiel Géographique Commun (www.rgc.cd).»,,,,,,,,,,,,,,,,,,,,,,,,,,,,,,,,,,,,,,,,,,,,,,Ecole primaire Lukubama,,,,,,,,,,,,,,1213160181,node,,,,,primaire,,,,GPS,,2010/04/21,,,,,,,,www.rgc.cd,,,,,,,,,,,,,,,
1213171774,node,-6.1416389,23.6992778,,,,,,,,,,,,,,,,,,,,,,,school,,«Ces données géographiques proviennent du Référentiel Géographique Commun (www.rgc.cd).»,,,,,,,,,,,,,,,,,,,,,,,,,,,,,,,,,,,,,,,,,,,,,,Ecole primaire Ditanda,,,,,,,,,,,,,,1213171774,node,,,,,primaire,,,,GPS,,2010/04/21,,,,,,,,www.rgc.cd,,,,,,,,,,,,,,,
1213171778,node,-6.29425,23.6581667,,,,,,,,,,,,,,,,,,,,,,,school,,«Ces données géographiques proviennent du Référentiel Géographique Commun (www.rgc.cd).»,,,,,,,,,,,,,,,,,,,,,,,,,,,,,,,,,,,,,,,,,,,,,,École primaire Bena Kabimba,,,,,,,,,,,,,,1213171778,node,,,,,primaire,,,,GPS,,2010/04/21,,,,,,,,www.rgc.cd,,,,,,,,,,,,,,,
1213171782,node,-6.2054722,23.7025833,,,,,,,,,,,,,,,,,,,,,,,school,,«Ces données géographiques proviennent du Référentiel Géographique Commun (www.rgc.cd).»,,,,,,,,,,,,,,,,,,,,,,,,,,,,,,,,,,,,,,,,,,,,,,Ecole primaire Kabongo Kankusu,,,,,,,,,,,,,,1213171782,node,,,,,primaire,,,,GPS,,2010/04/21,,,,,,,,www.rgc.cd,,,,,,,,,,,,,,,
1213171786,node,-6.1232222,23.7243333,,,,,,,,,,,,,,,,,,,,,,,school,,«Ces données géographiques proviennent du Référentiel Géographique Commun (www.rgc.cd).»,,,,,,,,,,,,,,,,,,,,,,,,,,,,,,,,,,,,,,,,,,,,,,École primaire Bakwa Bowa,,,,,,,,,,,,,,1213171786,node,,,,,primaire,,,,GPS,,2010/04/21,,,,,,,,www.rgc.cd,,,,,,,,,,,,,,,
1213171792,node,-6.2409444,23.7490278,,,,,,,,,,,,,,,,,,,,,,,school,,«Ces données géographiques proviennent du Référentiel Géographique Commun (www.rgc.cd).»,,,,,,,,,,,,,,,,,,,,,,,,,,,,,,,,,,,,,,,,,,,,,,Ecole primaire Kabikioni,,,,,,,,,,,,,,1213171792,node,,,,,primaire,,,,GPS,,2010/04/21,,,,,,,,www.rgc.cd,,,,,,,,,,,,,,,
1213171793,node,-6.2255,23.7522222,,,,,,,,,,,,,,,,,,,,,,,school,,«Ces données géographiques proviennent du Référentiel Géographique Commun (www.rgc.cd).»,,,,,,,,,,,,,,,,,,,,,,,,,,,,,,,,,,,,,,,,,,,,,,École primaire Sankayi,,,,,,,,,,,,,,1213171793,node,,,,,primaire,,,,GPS,,2010/04/21,,,,,,,,www.rgc.cd,,,,,,,,,,,,,,,
1213171795,node,-6.1626111,23.7099444,,,,,,,,,,,,,,,,,,,,,,,school,,«Ces données géographiques proviennent du Référentiel Géographique Commun (www.rgc.cd).»,,,,,,,,,,,,,,,,,,,,,,,,,,,,,,,,,,,,,,,,,,,,,,Ecole primaire Ndoba,,,,,,,,,,,,,,1213171795,node,,,,,primaire,,,,GPS,,2010/04/21,,,,,,,,www.rgc.cd,,,,,,,,,,,,,,,
1225769223,node,-5.6319444,22.2572222,,,,,,,,,,,,,,,,,,,,,,,school,,«Ces données géographiques proviennent du Référentiel Géographique Commun (www.rgc.cd).»,,,,,,,,,,,,,,,,,,,,,,,,,,,,,,,,,,,,,,,,,,,,,,Ecole primaire Binkunga,,,,,,,,,,,,,,1225769223,node,,,,,primaire,,,,GPS,,2010/04/21,,,,,,,,www.rgc.cd,,,,,,,,,,,,,,,
