name,latitude,longitude,location_name,type,source
Materdei,-4.4690518,15.2243459,,School,DRC_All_SCHool_Local
Institute Georges Simenon,-4.3053231,15.3147319,,School,DRC_All_SCHool_Local
Institut de Kinkole,-4.3216269,15.5163084,,School,DRC_All_SCHool_Local
Lycée catholique,2.7952524,24.7376833,,School,DRC_All_SCHool_Local
Petit séminaire Sainte Thérèse,3.1832605,27.8657858,,School,DRC_All_SCHool_Local
École Presbyterienne,-4.3772481,15.3351266,,School,DRC_All_SCHool_Local
École Massemba,-4.3812127,15.3359821,,School,DRC_All_SCHool_Local
Ecole Maternelle Massamba,-4.3849285,15.3369215,,School,DRC_All_SCHool_Local
École St-Louis,-4.3457112,15.293557,,School,DRC_All_SCHool_Local
École officielle,-4.3475774,15.2929726,,School,DRC_All_SCHool_Local
Institut Diangenda,-4.3531403,15.2903763,Kinshasa,School,DRC_All_SCHool_Local
École officielle,-4.3605004,15.3014055,,School,DRC_All_SCHool_Local
Ecole Technique ITIP Bumbu,-4.3621937,15.2881578,Saïo,School,DRC_All_SCHool_Local
École catholique Sainte Christine,-4.3890772,15.3126137,,School,DRC_All_SCHool_Local
École Catholique,-4.3224534,15.5169931,,School,DRC_All_SCHool_Local
Institut Wabakulu,-4.347404,15.2321757,,School,DRC_All_SCHool_Local
Centre Scolare Pingu II,-4.4298913,15.3716211,,School,DRC_All_SCHool_Local
École,-4.4316456,15.3672222,,School,DRC_All_SCHool_Local
École,-4.4319023,15.3678874,,School,DRC_All_SCHool_Local
Complexe scolaire Mère Theresa Tito,-4.4330361,15.3664712,,School,DRC_All_SCHool_Local
Complexe scolaire Bualu,-4.4351755,15.3663457,,School,DRC_All_SCHool_Local
École privé,-4.3669125,15.3198048,,School,DRC_All_SCHool_Local
Institut Kisantu,-4.4202186,15.3915973,,School,DRC_All_SCHool_Local
École Toco 2,-4.4197512,15.3904829,,School,DRC_All_SCHool_Local
École,-4.3685492,15.318766,,School,DRC_All_SCHool_Local
Collège Saint-Louis,-5.8878442,22.4486644,,School,DRC_All_SCHool_Local
Athénée,-5.8910786,22.4171816,,School,DRC_All_SCHool_Local
École ITP Passio,-4.4046477,15.4070665,,School,DRC_All_SCHool_Local
Ecole Primaire Biyela,-4.4189146,15.3926001,,School,DRC_All_SCHool_Local
Lycée Bankazi,-5.2516333,14.8625144,,School,DRC_All_SCHool_Local
École primaire Luzolo,-5.2557255,14.855603,,School,DRC_All_SCHool_Local
LycéE Kivuvu,-5.258717,14.8593796,,School,DRC_All_SCHool_Local
ITC BADIKA,-5.2551534,14.8640079,Mbanza-Ngungu,School,DRC_All_SCHool_Local
École primaire Kivuvu,-5.2572415,14.8588099,,School,DRC_All_SCHool_Local
Collège Wando,3.5995384,28.5749679,,School,DRC_All_SCHool_Local
Ecole primaire Mapatano II,-11.6994167,27.4848056,,School,DRC_All_SCHool_Local
Ecole primaire Kamakanga,-11.8230278,27.5875278,,School,DRC_All_SCHool_Local
Ecole primaire Matayarisho 3,-10.9740833,26.7079167,,School,DRC_All_SCHool_Local
Ecole primaire Mumea,-10.9625556,26.7234444,,School,DRC_All_SCHool_Local
École primaire Tumbwe,-11.4733056,27.3861389,,School,DRC_All_SCHool_Local
École primaire Fikupa,-11.949,27.5284444,,School,DRC_All_SCHool_Local
École primaire Mapatano I,-11.6996667,27.4852778,,School,DRC_All_SCHool_Local
Ecole primaire Lumiere Du Christ,-10.7866111,25.6186111,,School,DRC_All_SCHool_Local
École primaire Lumière Du Christ 6,-10.8508759,25.4513542,,School,DRC_All_SCHool_Local
Ecole primaire Matendo I,-10.9826944,26.7688056,,School,DRC_All_SCHool_Local
Ecole primaire Kamalondo III,-11.6846667,27.4865,,School,DRC_All_SCHool_Local
Ecole primaire Ciboko,-11.7110833,27.4548889,,School,DRC_All_SCHool_Local
Ecole primaire Mwanzo,-10.9863889,26.7937778,,School,DRC_All_SCHool_Local
École primaire Mukoma,-11.6504722,27.3256389,,School,DRC_All_SCHool_Local
École primaire Nuru,-10.9605278,26.7325833,,School,DRC_All_SCHool_Local
École primaire Vumilia,-10.9871389,26.7807778,,School,DRC_All_SCHool_Local
École primaire Maua,-11.70625,27.4837222,,School,DRC_All_SCHool_Local
Ecole primaire Daima,-11.697,27.4754722,,School,DRC_All_SCHool_Local
Ecole primaire Lumiere Du Christ 1,-10.96225,25.4619722,,School,DRC_All_SCHool_Local
Ecole primaire Nuru Ya Lwanga,-10.9816111,26.7069722,,School,DRC_All_SCHool_Local
Ecole primaire Amani,-11.7061389,27.4835833,,School,DRC_All_SCHool_Local
École primaire Mampala,-11.6958665,27.4756719,,School,DRC_All_SCHool_Local
Ecole primaire Tupendane,-10.9699722,26.72675,,School,DRC_All_SCHool_Local
Ecole primaire Butungwa,-11.7590278,27.5639444,,School,DRC_All_SCHool_Local
École primaire Mangi,-10.8020556,25.4793333,,School,DRC_All_SCHool_Local
Ecole primaire Bahati II,-10.983238,26.7677504,,School,DRC_All_SCHool_Local
Ecole primaire Kamalondo I,-11.6805278,27.4854444,,School,DRC_All_SCHool_Local
Ecole primaire Mapinduzi I,-11.6917732,27.479245,,School,DRC_All_SCHool_Local
École primaire St Bartelemy,-10.9691111,26.7118889,,School,DRC_All_SCHool_Local
Ecole primaire Kamalondo II,-11.6798889,27.4853056,,School,DRC_All_SCHool_Local
École primaire Shibukeni,-11.7395237,27.5639854,,School,DRC_All_SCHool_Local
Ecole primaire Kilubula,-10.9882222,26.7750556,,School,DRC_All_SCHool_Local
Ecole primaire Lwafu,-10.94325,26.9581944,,School,DRC_All_SCHool_Local
École primaire Mikombo,-11.84875,27.5606111,,School,DRC_All_SCHool_Local
Ecole primaire Luboto 2,-12.2509722,27.6428611,,School,DRC_All_SCHool_Local
Ecole primaire Mapinduzi II,-11.6915556,27.4794444,,School,DRC_All_SCHool_Local
École primaire Dilungu,-10.656,25.7036667,,School,DRC_All_SCHool_Local
Ecole primaire Uhuru,-10.7745,25.54625,,School,DRC_All_SCHool_Local
Ecole primaire Nyota,-10.9740833,26.7103611,,School,DRC_All_SCHool_Local
Ecole primaire Mapenzi,-11.7110833,27.4555,,School,DRC_All_SCHool_Local
École primaire Tuelimishe,-11.6903611,27.4818611,,School,DRC_All_SCHool_Local
Ecole primaire Kisima,-11.7016111,27.4505833,,School,DRC_All_SCHool_Local
Ecole primaire Kipopo,-11.5484167,27.3265556,,School,DRC_All_SCHool_Local
Ecole primaire Shindama,-10.9817778,26.7030556,,School,DRC_All_SCHool_Local
Ecole primaire Lubusha,-11.1806389,27.0126667,,School,DRC_All_SCHool_Local
École primaire Luboto 1,-12.0821111,27.5125556,,School,DRC_All_SCHool_Local
École primaire Ubupalo,-11.6888889,27.4882222,,School,DRC_All_SCHool_Local
Ecole primaire Vangu I,-11.6754167,27.4943056,,School,DRC_All_SCHool_Local
Ecole primaire Imani,-10.7793056,25.7076667,,School,DRC_All_SCHool_Local
Ecole primaire Bahati I,-10.9734167,26.711,,School,DRC_All_SCHool_Local
Ecole primaire Masikilizano,-11.6819722,27.4838889,,School,DRC_All_SCHool_Local
Ecole primaire Ushujaa II,-11.7007095,27.4795042,,School,DRC_All_SCHool_Local
Ecole primaire Mwana Kulema,-11.0445278,26.9541389,,School,DRC_All_SCHool_Local
École primaire Kikwanda,-11.6238056,27.6410278,,School,DRC_All_SCHool_Local
Ecole primaire Kazembe,-10.7249444,25.5620556,,School,DRC_All_SCHool_Local
Ecole primaire Katanga,-11.1247778,27.1006111,,School,DRC_All_SCHool_Local
Ecole primaire Vangu II,-11.7000145,27.4791508,,School,DRC_All_SCHool_Local
École primaire Mushima 1,-11.1600556,25.4511944,,School,DRC_All_SCHool_Local
Ecole primaire Huruma,-10.9572778,26.727,,School,DRC_All_SCHool_Local
Ecole primaire Kisaho,-11.7131389,27.4555,,School,DRC_All_SCHool_Local
Ecole primaire Kinandu,-11.7624722,27.361,,School,DRC_All_SCHool_Local
Ecole primaire Bilima,-10.9828056,26.7301944,,School,DRC_All_SCHool_Local
Ecole primaire Mavuno I,-10.9814722,26.7220556,,School,DRC_All_SCHool_Local
Ecole primaire Maranatha,-11.7370278,27.5639444,,School,DRC_All_SCHool_Local
Ecole primaire Kalubwe II,-11.6452778,27.4821944,,School,DRC_All_SCHool_Local
Ecole primaire Mwongo,-10.7811111,25.7453611,,School,DRC_All_SCHool_Local
École primaire Usamani,-11.0040556,26.7955,,School,DRC_All_SCHool_Local
Ecole primaire Zamiri,-11.7038056,27.4875556,,School,DRC_All_SCHool_Local
École primaire Nyota Ya Taifa,-11.6999167,27.4853889,,School,DRC_All_SCHool_Local
Ecole primaire Songa Songa,-10.94325,26.9599167,,School,DRC_All_SCHool_Local
Ecole primaire Lua Bolo,3.7771667,19.055,,School,DRC_All_SCHool_Local
EP Lisanga,0.0513948,18.2747803,,School,DRC_All_SCHool_Local
Ecole primaire Mole,4.3442222,18.7921944,,School,DRC_All_SCHool_Local
Ecole primaire Ngombe Poswa,3.7206667,18.7736111,,School,DRC_All_SCHool_Local
École primaire Mpenda Moheli,-0.7884922,18.2820391,,School,DRC_All_SCHool_Local
EP Nsongwatala,0.0105446,18.3166368,,School,DRC_All_SCHool_Local
Ecole primaire Bogbadono,3.2242778,19.2933333,,School,DRC_All_SCHool_Local
Ecole primaire Bokandja,-0.8315833,18.14175,,School,DRC_All_SCHool_Local
Ecole primaire Lolango,-0.0222222,18.2036111,,School,DRC_All_SCHool_Local
École primaire Toyokana,-0.7645206,18.2873733,,School,DRC_All_SCHool_Local
EP2 Salongo,0.0311134,18.2752816,,School,DRC_All_SCHool_Local
École primaire Kpindima,3.3236944,19.4068889,,School,DRC_All_SCHool_Local
EP Bokombondji,0.045843,18.2654281,,School,DRC_All_SCHool_Local
EP Mpaha Epole,-0.8299891,18.1848708,,School,DRC_All_SCHool_Local
EP Ekofo,-0.0657524,18.169366,,School,DRC_All_SCHool_Local
Ecole primaire Nguvale,2.9751389,19.3518611,,School,DRC_All_SCHool_Local
Ecole primaire Ikengo,-0.0099839,18.3269081,,School,DRC_All_SCHool_Local
EP Mpiko,-1.0289311,18.6278682,,School,DRC_All_SCHool_Local
Ecole primaire Papa Diangenda,0.0477778,18.2477778,,School,DRC_All_SCHool_Local
EP Mbongo Buyombo,-1.0191885,18.6379008,,School,DRC_All_SCHool_Local
Ecole primaire Maman Yanga,3.25725,19.7898611,,School,DRC_All_SCHool_Local
Ecole primaire Talasa,3.1757778,19.2439722,,School,DRC_All_SCHool_Local
EP Besenge,-0.8338388,18.1765274,,School,DRC_All_SCHool_Local
École primaire Etoko,0.0102642,18.3274462,,School,DRC_All_SCHool_Local
Ecole primaire Sembi,3.2409167,19.6926389,,School,DRC_All_SCHool_Local
EP2 Mopepe,0.0344289,18.2505451,,School,DRC_All_SCHool_Local
École primaire Nika,4.3482184,18.5932282,,School,DRC_All_SCHool_Local
EP Itemanonga,-0.8180582,18.6666613,,School,DRC_All_SCHool_Local
Ecole primaire Bodigia,3.31875,19.8211389,,School,DRC_All_SCHool_Local
Ecole primaire Ekof'ekema 1,0.0433333,18.2644444,,School,DRC_All_SCHool_Local
Ecole primaire Nzembenga,-1.0725556,18.6205,,School,DRC_All_SCHool_Local
École primaire Liyombo Mpenda,-0.7537476,18.2321524,,School,DRC_All_SCHool_Local
Ecole primaire Eanga,-0.1255878,18.1370195,,School,DRC_All_SCHool_Local
Ecole primaire Wanie-rukula,0.1960556,25.5308889,,School,DRC_All_SCHool_Local
Ecole primaire Bayangene I,0.8763333,25.1919167,,School,DRC_All_SCHool_Local
Ecole primaire Tomibikisa,0.1967778,25.5202778,,School,DRC_All_SCHool_Local
Ecole primaire Bayangene II,0.8794722,25.1928611,,School,DRC_All_SCHool_Local
Ecole primaire Ndjale,-0.2380278,25.3209722,,School,DRC_All_SCHool_Local
Institut Matanda,0.0947622,29.2848243,,School,DRC_All_SCHool_Local
École Primaire Mambingi,0.3674602,29.2729622,,School,DRC_All_SCHool_Local
École primaire Kisuku / Limboro,0.1165883,29.3083216,,School,DRC_All_SCHool_Local
École Primaire La Vérité,0.1174933,29.3189876,,School,DRC_All_SCHool_Local
Ecole Secondaire Ngesse,0.1441,29.319333,,School,DRC_All_SCHool_Local
École Primaire Sambo Mbilinga,0.3231,29.20069,,School,DRC_All_SCHool_Local
Institut Vuhika,0.0919682,29.3194718,,School,DRC_All_SCHool_Local
École Primaire Malepe,0.25965,29.27552,,School,DRC_All_SCHool_Local
École Primaire Teule,0.1314259,29.3296225,,School,DRC_All_SCHool_Local
École Primaire Munimba,0.1599479,29.316928,,School,DRC_All_SCHool_Local
École Primaire Kirindera,0.0952335,29.3119256,,School,DRC_All_SCHool_Local
Institut Nderembi,0.0978454,29.3060994,,School,DRC_All_SCHool_Local
Ecole Primaire Bulengera,0.1454052,29.3354654,,School,DRC_All_SCHool_Local
École Primaire Mashua,0.35778,29.18608,,School,DRC_All_SCHool_Local
Ecole Primaire Masiki,0.1211656,29.3015055,,School,DRC_All_SCHool_Local
École Secondaire Petits Génies,0.1281893,29.2937803,,School,DRC_All_SCHool_Local
École Primaire et Secondaire Vighole,0.0747606,29.3062283,,School,DRC_All_SCHool_Local
Kamatsi Mkb,1.1291944,29.9880833,,School,DRC_All_SCHool_Local
Ecole secondaire Mont Carmel,0.145,29.317383,,School,DRC_All_SCHool_Local
École primaire Monseigneur Sikuli,0.0985916,29.2831809,,School,DRC_All_SCHool_Local
École primaire Bubanda,0.2594049,29.2333752,,School,DRC_All_SCHool_Local
Ecole Secondaire CBCA Kikyo,0.1554495,29.3005668,,School,DRC_All_SCHool_Local
Complexe Scolaire Labourgeoisie,0.1269725,29.2954479,,School,DRC_All_SCHool_Local
École Primaire et Secondaire Mashua,0.3592,29.18553,,School,DRC_All_SCHool_Local
École Primaire Mahero,0.1065092,29.2992114,,School,DRC_All_SCHool_Local
École secondaire Hanga,0.1217693,29.3220821,,School,DRC_All_SCHool_Local
École Secondaire Emmanuel,0.1287394,29.3113554,,School,DRC_All_SCHool_Local
École primaire Masimbembe,0.6108333,29.3121389,,School,DRC_All_SCHool_Local
Lycée Utamaduni,0.0967,29.3108847,,School,DRC_All_SCHool_Local
Ita Pimbo,1.8449725,30.469903,,School,DRC_All_SCHool_Local
École primaire Maliese,0.6794444,29.4132222,,School,DRC_All_SCHool_Local
École Primaire Kyavisogho,0.32256,29.24796,,School,DRC_All_SCHool_Local
École Primaire Huruma,0.1059573,29.3059008,,School,DRC_All_SCHool_Local
Institut Kanyihunga,0.26545,29.25541,,School,DRC_All_SCHool_Local
École Primaire Kisoko,0.105567,29.3338,,School,DRC_All_SCHool_Local
Matafu,1.1802778,30.0348611,,School,DRC_All_SCHool_Local
Institut Malkia Wa Mbingu,0.1403447,29.2984572,,School,DRC_All_SCHool_Local
École Primaire Kavisa,0.0960643,29.3119258,,School,DRC_All_SCHool_Local
Institut Mihake,0.1616095,29.2966249,,School,DRC_All_SCHool_Local
École Primaire Quinze,0.3453451,29.2988919,,School,DRC_All_SCHool_Local
École Secondaire Nuru,0.1588669,29.3173891,,School,DRC_All_SCHool_Local
École Primaire Vukaka,0.087517,29.2995,,School,DRC_All_SCHool_Local
École Primaire Vungi,0.1326196,29.2942679,,School,DRC_All_SCHool_Local
École Primaire Matanda,0.0951351,29.284722,,School,DRC_All_SCHool_Local
École Primaire Misevere,0.238533,29.244533,,School,DRC_All_SCHool_Local
École Biblique Mutiri,0.138,29.307517,,School,DRC_All_SCHool_Local
École Primaire et Secondaire Bashu,0.2947158,29.3148671,,School,DRC_All_SCHool_Local
Ecole Primaire Mahano,0.1569326,29.3342585,,School,DRC_All_SCHool_Local
École Secondaire Vuhumbu,0.128167,29.310933,,School,DRC_All_SCHool_Local
Institut Mgr Henri Pierrard,0.1249687,29.3041946,,School,DRC_All_SCHool_Local
Institut La Fraternité,0.1160127,29.3074266,,School,DRC_All_SCHool_Local
Ecole primaire Ngazi,0.4188331,29.1543505,,School,DRC_All_SCHool_Local
Institut Kyavaghendi,0.0935478,29.3344255,,School,DRC_All_SCHool_Local
École Primaire Bakita,0.0900312,29.2890793,,School,DRC_All_SCHool_Local
Kaswara,1.2398056,30.0991111,,School,DRC_All_SCHool_Local
École Primaire Musimba,0.093784,29.271547,,School,DRC_All_SCHool_Local
École secondaire Bulumbi,0.1101956,29.3006519,,School,DRC_All_SCHool_Local
École primaire Kyatsinge,0.111558,29.273888,,School,DRC_All_SCHool_Local
Lycée Butembo,0.1302413,29.3205563,,School,DRC_All_SCHool_Local
École Primaire Kabasha,0.2382722,29.2628214,,School,DRC_All_SCHool_Local
École Primaire Bwinongo,0.0773186,29.2933537,,School,DRC_All_SCHool_Local
Ecole primaire Reginacaeli,0.16155,29.29455,,School,DRC_All_SCHool_Local
École Primaire Bulumbi,0.1105009,29.3010368,,School,DRC_All_SCHool_Local
École Primaire Rupaya,0.29928,29.2466,,School,DRC_All_SCHool_Local
Institut Masiki,0.1207207,29.301918,,School,DRC_All_SCHool_Local
Ecole Secondaire Malevu,0.1371127,29.3343576,,School,DRC_All_SCHool_Local
Institut Nyalumenge,0.1348864,29.300083,,School,DRC_All_SCHool_Local
École Primaire Kihinga,0.1285415,29.311101,,School,DRC_All_SCHool_Local
École Primaire Ahimidiwe,0.1291796,29.3112329,,School,DRC_All_SCHool_Local
École Primaire et Secondaire Sauvetage,0.14285,29.3,,School,DRC_All_SCHool_Local
École Primaire Bubanda II,0.25191,29.24971,,School,DRC_All_SCHool_Local
InstIitut La Vérité,0.1175146,29.3183009,,School,DRC_All_SCHool_Local
École Primaire Butuhe,0.21322,29.2716,,School,DRC_All_SCHool_Local
École primaire et secondaire Ngazi,0.41551,29.16044,,School,DRC_All_SCHool_Local
École Primaire Kilalu,0.1335741,29.3204096,,School,DRC_All_SCHool_Local
Ecole Primaire et Secondaire Mbilinga,0.31562,29.21604,,School,DRC_All_SCHool_Local
Institut Katwa,0.09442,29.3139454,,School,DRC_All_SCHool_Local
Institut Loyola,0.1061334,29.279711,,School,DRC_All_SCHool_Local
Gety,1.2078056,30.1823889,,School,DRC_All_SCHool_Local
École Primaire Advantiste Hekima,0.1119628,29.3124466,,School,DRC_All_SCHool_Local
École primaire Mayazola,0.71,29.5276944,,School,DRC_All_SCHool_Local
École primaire et secondaire Malondo,0.3982,29.19551,,School,DRC_All_SCHool_Local
Ecole Secondaire Livate,0.1374657,29.3338323,,School,DRC_All_SCHool_Local
Institut Superieur Biblique de Katwa,0.0967715,29.3122177,,School,DRC_All_SCHool_Local
École Secondaire Hekima,0.2813,29.27207,,School,DRC_All_SCHool_Local
École Primaire Kitulu,0.1248134,29.3034406,,School,DRC_All_SCHool_Local
Ecole primaire et secondaire Visiki,0.395626,29.2244464,,School,DRC_All_SCHool_Local
École Primaire Kirivata,0.1397258,29.2994804,,School,DRC_All_SCHool_Local
École Primaire Menge,0.1359114,29.3011297,,School,DRC_All_SCHool_Local
Sorodo II,1.1455833,30.0242778,,School,DRC_All_SCHool_Local
École Primaire Nderembi,0.0985,29.30495,,School,DRC_All_SCHool_Local
École primaire Mambombo,0.39947,29.19624,,School,DRC_All_SCHool_Local
École Primaire Hanga,0.12175,29.3217,,School,DRC_All_SCHool_Local
École primaire Katasohire,0.122759,29.3113087,,School,DRC_All_SCHool_Local
Institut Ngununu,0.1400897,29.3068437,,School,DRC_All_SCHool_Local
Complexe Scolaire Vuvatsi,0.1383914,29.3074935,,School,DRC_All_SCHool_Local
École Primaire Heri,0.1317531,29.3295763,,School,DRC_All_SCHool_Local
Institut Tuyitsinge,0.1521622,29.3078234,,School,DRC_All_SCHool_Local
École Primaire et Secondaire Mikala,0.32826,29.24898,,School,DRC_All_SCHool_Local
École primaire et secondaire Vusamba,0.022115,29.161467,,School,DRC_All_SCHool_Local
École primaire et secondaire Musitu Et Mabwe,0.04176,29.064797,,School,DRC_All_SCHool_Local
Institut Kyavirimu,-0.1241927,29.3942153,,School,DRC_All_SCHool_Local
École primaire Musasa,-0.077387,29.135341,,School,DRC_All_SCHool_Local
École primaire Musangalya,0.0776381,29.4096378,,School,DRC_All_SCHool_Local
École primaire Mavoghu,0.060722,29.058826,,School,DRC_All_SCHool_Local
Ecole primaire Muvugha,-0.0287,29.437877,,School,DRC_All_SCHool_Local
École primaire Ngitse,-0.097201,29.388631,,School,DRC_All_SCHool_Local
École primaire Kavasinza,0.086359,29.158882,,School,DRC_All_SCHool_Local
Église Primaire Magheria,0.0625326,29.3672841,,School,DRC_All_SCHool_Local
Ecole primaire et secondaire Burusi,-0.081114,29.453054,,School,DRC_All_SCHool_Local
École primaire Cbca Bunande,0.006231,28.801357,,School,DRC_All_SCHool_Local
Ecole primaire Busamba,0.019128,29.159436,,School,DRC_All_SCHool_Local
Ecole secondaire Kauli,-0.248189,29.417682,,School,DRC_All_SCHool_Local
Ecole primaire et secondaire Vusorongi,-0.043847,29.495146,,School,DRC_All_SCHool_Local
Institut Pédagogique Adventiste de Lukanga,-0.057677,29.3028598,,School,DRC_All_SCHool_Local
Ecole primaire Vurondo,-0.042343,29.502651,,School,DRC_All_SCHool_Local
École primaire Katsunga,0.02106,29.158588,,School,DRC_All_SCHool_Local
École primaire Matembo,0.063167,29.008791,,School,DRC_All_SCHool_Local
École Primaire Bayangwa,0.058822,29.3616756,,School,DRC_All_SCHool_Local
École Primaire Ngeleza,0.0390868,29.3437212,,School,DRC_All_SCHool_Local
Ecole primaire Katembo,0.013147,29.070249,,School,DRC_All_SCHool_Local
Ecole primaire Buyinga,0.061324,29.055163,,School,DRC_All_SCHool_Local
Kisima,-0.290569,29.401239,,School,DRC_All_SCHool_Local
Ecole secondaire Kalimba,-0.3655084,29.3143531,,School,DRC_All_SCHool_Local
Ecole primaire Kivuwa,0.08935,29.159598,,School,DRC_All_SCHool_Local
Ecole primaire Virenge,-0.203201,29.301804,,School,DRC_All_SCHool_Local
Ecole primaire Tuvuke / Burusi,-0.079415,29.454511,,School,DRC_All_SCHool_Local
École Primaire Ndando,0.064145,29.280671,,School,DRC_All_SCHool_Local
Ecole primaire Kanyamulamba,0.072912,29.084326,,School,DRC_All_SCHool_Local
Ecole primaire Kivuwe,-0.0023049,29.498892,,School,DRC_All_SCHool_Local
Ecole secondaire Mulo,-0.1347767,29.2666818,,School,DRC_All_SCHool_Local
École primaire Katiri,-0.031163,29.37762,,School,DRC_All_SCHool_Local
Ecole primaire Kasinga,0.0317193,29.2098927,,School,DRC_All_SCHool_Local
Ecole primaire Kyangendi,-0.000426,29.533243,,School,DRC_All_SCHool_Local
Ecole secondaire Kyangendi,-0.002898,29.523677,,School,DRC_All_SCHool_Local
Ecole primaire Masumo,-0.0319035,29.1442662,,School,DRC_All_SCHool_Local
Ecole primaire Kasiyiro,0.095526,28.975012,,School,DRC_All_SCHool_Local
Ecole primaire Ceca20 Matuna,0.0576893,28.9061133,,School,DRC_All_SCHool_Local
Ecole secondaire Matolu,-0.369235,29.345057,,School,DRC_All_SCHool_Local
École primaire Kasiyiro,0.012895,29.013831,,School,DRC_All_SCHool_Local
École primaire Ndeko,0.074447,29.124266,,School,DRC_All_SCHool_Local
Ecole primaire Itunduliro,-0.029139,29.390294,,School,DRC_All_SCHool_Local
Ecole primaire Bukembe,-0.014768,29.420701,,School,DRC_All_SCHool_Local
Ecole primaire Kavisegho,-0.278399,29.299314,,School,DRC_All_SCHool_Local
Ecole primaire Vayana,-0.0157634,29.4191386,,School,DRC_All_SCHool_Local
École Primaire Bughumirya,0.040709,29.316429,,School,DRC_All_SCHool_Local
Ecole primaire Sana,0.066668,29.096996,,School,DRC_All_SCHool_Local
Ecole primaire Mwangaza,0.028692,29.103747,,School,DRC_All_SCHool_Local
École primaire Vulimira,0.033155,29.287761,,School,DRC_All_SCHool_Local
École primaire Vulimira,-0.002667,29.523514,,School,DRC_All_SCHool_Local
École primaire Kirungu,0.025472,29.363266,,School,DRC_All_SCHool_Local
Ecole primaire Yakanyama,-6.1263056,24.5326389,,School,DRC_All_SCHool_Local
Ecole primaire Kintukimune,-6.1301111,24.4907778,,School,DRC_All_SCHool_Local
Ecole primaire Kalambayi,-6.1348333,24.4884167,,School,DRC_All_SCHool_Local
École primaire Shimatayi,-6.1416667,24.4762222,,School,DRC_All_SCHool_Local
École primaire Tuendeyi,-6.1493889,24.4661389,,School,DRC_All_SCHool_Local
Ecole primaire Lukubama,-6.1416667,24.4896944,,School,DRC_All_SCHool_Local
École primaire Nambutwile,-6.1301111,24.4902222,,School,DRC_All_SCHool_Local
École primaire Shimatayi,-6.1180999,24.512553,,School,DRC_All_SCHool_Local
Ecole primaire Kintukimune,-6.1065439,24.5271086,,School,DRC_All_SCHool_Local
École primaire Kalambayi,-6.1112663,24.5247475,,School,DRC_All_SCHool_Local
Ecole primaire Nambutwile,-6.1065439,24.526553,,School,DRC_All_SCHool_Local
Ecole primaire Yakanyama,-6.1027381,24.5689697,,School,DRC_All_SCHool_Local
Ecole primaire Tuendeyi,-6.1258225,24.5024697,,School,DRC_All_SCHool_Local
Ecole primaire Lukubama,-6.1180999,24.5260253,,School,DRC_All_SCHool_Local
Ecole primaire Ditanda,-6.1416389,23.6992778,,School,DRC_All_SCHool_Local
École primaire Bena Kabimba,-6.29425,23.6581667,,School,DRC_All_SCHool_Local
Ecole primaire Kabongo Kankusu,-6.2054722,23.7025833,,School,DRC_All_SCHool_Local
École primaire Bakwa Bowa,-6.1232222,23.7243333,,School,DRC_All_SCHool_Local
Ecole primaire Kabikioni,-6.2409444,23.7490278,,School,DRC_All_SCHool_Local
École primaire Sankayi,-6.2255,23.7522222,,School,DRC_All_SCHool_Local
Ecole primaire Ndoba,-6.1626111,23.7099444,,School,DRC_All_SCHool_Local
Ecole primaire Binkunga,-5.6319444,22.2572222,,School,DRC_All_SCHool_Local
École primaire Dibanda 1,-5.6291268,22.8957458,,School,DRC_All_SCHool_Local
Ecole primaire Banongo,-5.9430556,21.6438889,,School,DRC_All_SCHool_Local
École primaire Diyeba,-5.8386111,22.6655,,School,DRC_All_SCHool_Local
Ecole primaire Kanongo,-5.7341667,21.4866944,,School,DRC_All_SCHool_Local
École primaire Benaleka 3,-5.0961111,22.0958333,,School,DRC_All_SCHool_Local
École primaire Musasa Kumi,-5.8102778,22.6852778,,School,DRC_All_SCHool_Local
Ecole primaire Mimuemue,-5.7622222,22.361,,School,DRC_All_SCHool_Local
Ecole primaire Lutshiatshia,-5.6591667,22.3245556,,School,DRC_All_SCHool_Local
Ecole primaire Tshikuma,-5.4775,22.3008333,,School,DRC_All_SCHool_Local
Ecole primaire Dibandisha,-5.2744444,22.8641667,,School,DRC_All_SCHool_Local
Ecole primaire Tshibala 1,-5.72,22.1347222,,School,DRC_All_SCHool_Local
École primaire Kaffubi,-5.7602778,22.7177778,,School,DRC_All_SCHool_Local
École primaire Lubudi,-5.7980556,22.7918889,,School,DRC_All_SCHool_Local
Ecole primaire Ntema,-5.8527778,21.5652778,,School,DRC_All_SCHool_Local
Ecole primaire Butumbi,-5.3247222,22.4689444,,School,DRC_All_SCHool_Local
École primaire Ntumba Nsengu,-5.7933333,22.6991944,,School,DRC_All_SCHool_Local
Ecole primaire Kambote,-5.7394444,22.5639722,,School,DRC_All_SCHool_Local
École primaire Bunkonde 2,-5.1558333,22.5202778,,School,DRC_All_SCHool_Local
Ecole primaire Benaleka 2,-5.3361111,22.5627778,,School,DRC_All_SCHool_Local
Ecole primaire Tshibala 2,-5.1375,22.7075028,,School,DRC_All_SCHool_Local
Ecole primaire Benaleka 1,-5.6669444,22.393,,School,DRC_All_SCHool_Local
Ecole primaire Mboie,-5.2022222,22.3897222,,School,DRC_All_SCHool_Local
Ecole primaire Imeny,-5.8530556,21.5652778,,School,DRC_All_SCHool_Local
École primaire Tshimajiba 2,-5.9530556,22.2683333,,School,DRC_All_SCHool_Local
École primaire Katadi,-5.7825,22.8640833,,School,DRC_All_SCHool_Local
École primaire Kempa 1,-5.175,22.3027778,,School,DRC_All_SCHool_Local
École primaire Baluishi,-5.8394444,22.6025,,School,DRC_All_SCHool_Local
École primaire Mpashi 2,-5.9311111,22.4805278,,School,DRC_All_SCHool_Local
École primaire Lubi A Mpata,-5.9522222,22.4641667,,School,DRC_All_SCHool_Local
Ecole primaire Luemba,-5.4994444,22.5013889,,School,DRC_All_SCHool_Local
École primaire Budimu,-5.6677778,22.6738889,,School,DRC_All_SCHool_Local
École primaire Mfuki,-5.0244424,22.1511131,,School,DRC_All_SCHool_Local
Ecole primaire Tshikunda,-5.6388889,22.1708333,,School,DRC_All_SCHool_Local
Ecole primaire Wanfuala,-5.8586111,21.5429722,,School,DRC_All_SCHool_Local
Ecole primaire Kunduyi,-5.4147222,22.1341667,,School,DRC_All_SCHool_Local
Ecole primaire Shandi Na Bana,-8.2094444,26.9315,,School,DRC_All_SCHool_Local
École primaire Nsumba Lulu,-8.9469444,26.3663889,,School,DRC_All_SCHool_Local
École primaire Lumière du Christ,-8.9125,26.3977778,,School,DRC_All_SCHool_Local
Ecole primaire Butwile Mwanya,-8.4016331,26.8515589,,School,DRC_All_SCHool_Local
École primaire Tambo 1,-8.2316667,26.8561111,,School,DRC_All_SCHool_Local
Ecole primaire Bwanga Bwa Tulo,-8.1897222,26.9497222,,School,DRC_All_SCHool_Local
École primaire Dyese 5,-7.8290583,26.9883111,,School,DRC_All_SCHool_Local
Ecole primaire Kakonga,-8.9141667,26.3941667,,School,DRC_All_SCHool_Local
École primaire Songa,-8.1116667,25.0266667,,School,DRC_All_SCHool_Local
École primaire Mulongo Kala,-7.8321278,26.9984583,,School,DRC_All_SCHool_Local
École primaire Nzazi,-8.6522778,26.5091111,,School,DRC_All_SCHool_Local
Ecole primaire Walilando,-8.6889444,27.4885556,,School,DRC_All_SCHool_Local
Ecole primaire Kamungu,-8.1644444,27.0325,,School,DRC_All_SCHool_Local
École primaire Maleo I,-9.1991389,25.8522222,,School,DRC_All_SCHool_Local
Ecole primaire Zazi,-8.6538889,26.515,,School,DRC_All_SCHool_Local
École primaire Matumayini,-9.4285,25.7909167,,School,DRC_All_SCHool_Local
Ecole primaire Kayombo,-8.6995833,26.5203056,,School,DRC_All_SCHool_Local
Ecole primaire Kaniema Mbidi,-8.8947222,25.3169444,,School,DRC_All_SCHool_Local
École primaire Kitenge 2,-8.2227778,26.9183333,,School,DRC_All_SCHool_Local
Ecole primaire Kilumbe Lamu,-8.5788889,26.5265556,,School,DRC_All_SCHool_Local
Ecole primaire Katala I,-8.9024722,26.4736389,,School,DRC_All_SCHool_Local
Ecole primaire Mukuba 2,-8.4688889,26.7472222,,School,DRC_All_SCHool_Local
École primaire Matayarisho,-7.8288556,26.9883111,,School,DRC_All_SCHool_Local
Ecole primaire Mutanya,-8.19775,27.0494444,,School,DRC_All_SCHool_Local
École primaire Ustawi,-8.2241667,26.9355556,,School,DRC_All_SCHool_Local
École primaire Maendeleo,-9.4323333,25.7902778,,School,DRC_All_SCHool_Local
Ecole primaire Nyembo Layi,-8.1646944,27.0319444,,School,DRC_All_SCHool_Local
École primaire Kiya I,-7.8233225,27.0163416,,School,DRC_All_SCHool_Local
École primaire Kabanga,-8.9327778,26.4152778,,School,DRC_All_SCHool_Local
Ecole primaire Mpumba,-8.4963889,26.7483333,,School,DRC_All_SCHool_Local
Ecole primaire Lusa Lwa Lesa,-8.1752778,26.4127778,,School,DRC_All_SCHool_Local
École primaire Mwilambwe,-8.1120833,25.0303611,,School,DRC_All_SCHool_Local
Ecole primaire Katyi Kala,-8.5605278,26.5481667,,School,DRC_All_SCHool_Local
École primaire Kyabuntu,-9.2913661,25.8032506,,School,DRC_All_SCHool_Local
Ecole primaire Luvua,-7.9116667,25.2188889,,School,DRC_All_SCHool_Local
Ecole primaire Pamba Mukanda,-8.2219444,26.9288889,,School,DRC_All_SCHool_Local
École primaire Lulu Mwango,-9.2076216,25.8498396,,School,DRC_All_SCHool_Local
Ecole primaire Mulembu,-8.5919444,26.5203056,,School,DRC_All_SCHool_Local
Ecole primaire Kilumbe Lamu,-8.5686111,26.5330556,,School,DRC_All_SCHool_Local
Ecole primaire Misania,-8.4986944,26.7286389,,School,DRC_All_SCHool_Local
École primaire Mutubuyi,-7.836975,26.9797111,,School,DRC_All_SCHool_Local
École primaire Nkubo,-8.2183333,26.9188889,,School,DRC_All_SCHool_Local
Ecole primaire Tambo 2,-8.2196721,26.9240853,,School,DRC_All_SCHool_Local
École primaire Konga Batwi,-9.2086944,25.8570833,,School,DRC_All_SCHool_Local
Ecole primaire Kamitoto,-8.2155556,26.9188889,,School,DRC_All_SCHool_Local
Ecole primaire Zaire Kabungi,-8.8558017,26.3256814,,School,DRC_All_SCHool_Local
Ecole primaire Ngala Ya Lwalala,-8.9069444,26.3866667,,School,DRC_All_SCHool_Local
Ecole primaire Misanya,-8.4883333,26.7388889,,School,DRC_All_SCHool_Local
Ecole primaire Ilunga Nyemba,-8.2272222,26.9183333,,School,DRC_All_SCHool_Local
Ecole primaire Malubu 3,-8.1626159,27.0340603,,School,DRC_All_SCHool_Local
École primaire Katomabaswe,-7.836975,26.9869611,,School,DRC_All_SCHool_Local
École primaire Kipukwe,-8.1052569,25.166144,,School,DRC_All_SCHool_Local
École primaire Bukwashi,-7.8337806,27.0034417,,School,DRC_All_SCHool_Local
École primaire Nkunwa,-8.5360556,26.5825278,,School,DRC_All_SCHool_Local
École primaire Lufira,-8.4908333,26.735,,School,DRC_All_SCHool_Local
École primaire Kazele I,-9.2056362,25.8535078,,School,DRC_All_SCHool_Local
École primaire Kazi,-8.5734167,26.5306667,,School,DRC_All_SCHool_Local
École primaire Kamunza,-8.1813889,27.0325,,School,DRC_All_SCHool_Local
Ecole primaire Kilumbe Katyi Kala,-8.5586111,26.5508889,,School,DRC_All_SCHool_Local
Ecole primaire Butuy Shele,-8.4525,26.7858333,,School,DRC_All_SCHool_Local
École primaire Kiyenge,-8.1519444,27.0444444,,School,DRC_All_SCHool_Local
École primaire Ngala Ya Lwalala,-9.2030556,25.8477778,,School,DRC_All_SCHool_Local
École primaire Luwe,-8.7235833,26.4391667,,School,DRC_All_SCHool_Local
École ISDR,-7.0549741,29.7312561,,School,DRC_All_SCHool_Local
École primaire Murumbi,-7.0688808,29.7453007,,School,DRC_All_SCHool_Local
Ecole primaire Dikuluzi,-8.46,28.9076944,,School,DRC_All_SCHool_Local
Centre De Promotion Sociale,-7.0646492,29.72885,,School,DRC_All_SCHool_Local
Ecole primaire Cawama II,-8.4703837,28.9044112,,School,DRC_All_SCHool_Local
École primaire Kirungu,-7.0758514,29.7372201,,School,DRC_All_SCHool_Local
École primaire Kashengeneke,-8.469487,28.8985332,,School,DRC_All_SCHool_Local
École primaire Kibobwa,-7.4549259,29.6763406,,School,DRC_All_SCHool_Local
École primaire Mulenga,-7.37232,29.8004509,,School,DRC_All_SCHool_Local
École primaire Methodiste,-7.2769256,29.7400082,,School,DRC_All_SCHool_Local
École primaire Mano A Mano,-7.0361779,29.7618592,,School,DRC_All_SCHool_Local
École primaire Mwanga,-7.0600673,29.7318871,,School,DRC_All_SCHool_Local
Ecole primaire Kapondo,-8.5323611,28.8371389,,School,DRC_All_SCHool_Local
École primaire Kalaba,-7.2085933,29.6245884,,School,DRC_All_SCHool_Local
École primaire Mulungushi,-7.726174,29.5279395,,School,DRC_All_SCHool_Local
École primaire Kilimantinde,-7.032299,29.7552381,,School,DRC_All_SCHool_Local
École primaire Furaha Yetu,-7.0736111,29.7325,,School,DRC_All_SCHool_Local
École primaire Muhila,-7.0819458,29.7292609,,School,DRC_All_SCHool_Local
École secondaire Inst Lukenta,-7.02414,29.7568475,,School,DRC_All_SCHool_Local
École primaire Kayembwe,-8.3827222,28.8351667,,School,DRC_All_SCHool_Local
École Amimo,-7.0923231,29.7140077,,School,DRC_All_SCHool_Local
École primaire Kabilozi,-7.4604453,29.8081172,,School,DRC_All_SCHool_Local
École primaire Manika 2,-7.3135185,29.8350235,,School,DRC_All_SCHool_Local
École primaire Karonja,-7.0748192,29.6750316,,School,DRC_All_SCHool_Local
École primaire Musika,-7.1796889,29.764147,,School,DRC_All_SCHool_Local
Ecole primaire Saint Joseph,-8.4717778,28.9006111,,School,DRC_All_SCHool_Local
École secondaire Inst Amani,-7.0551257,29.7290655,,School,DRC_All_SCHool_Local
École primaire Kasenge,-7.6250865,29.6379592,,School,DRC_All_SCHool_Local
École primaire Bakunda,-8.4772362,28.9073128,,School,DRC_All_SCHool_Local
École primaire Musosa,-8.38551,29.6313562,,School,DRC_All_SCHool_Local
École primaire Kinyongoro,-7.251824,29.7445471,,School,DRC_All_SCHool_Local
École primaire Kalongo,-7.1005556,29.715,,School,DRC_All_SCHool_Local
École primaire Zoale,-7.08,29.7011667,,School,DRC_All_SCHool_Local
École primaire Vyura,-7.0594444,29.7602778,,School,DRC_All_SCHool_Local
École primaire Moba,-7.0733333,29.7152778,,School,DRC_All_SCHool_Local
École primaire Mulonde,-7.1731202,29.7612663,,School,DRC_All_SCHool_Local
École primaire Inst Kinzembo,-7.041254,29.7671706,,School,DRC_All_SCHool_Local
Ecole primaire Babwile,-8.3756111,28.8921389,,School,DRC_All_SCHool_Local
École primaire Kampilikwe,-7.5684495,29.7943276,,School,DRC_All_SCHool_Local
École secondaire Inst Mulembwe,-7.0765336,29.7373511,,School,DRC_All_SCHool_Local
École primaire Mwele,-7.0549573,29.6571407,,School,DRC_All_SCHool_Local
École primaire Kabunyange,-8.4613173,28.8979584,,School,DRC_All_SCHool_Local
École secondaire Vyura,-7.0332435,29.755987,,School,DRC_All_SCHool_Local
École primaire Mitobo,-7.4021147,29.3274523,,School,DRC_All_SCHool_Local
Ecole primaire Dilenda,-8.4064167,28.9886389,,School,DRC_All_SCHool_Local
École primaire Kizike,-7.3921183,30.1892859,,School,DRC_All_SCHool_Local
Ecole secondaire Inst Mwando,-8.3857016,29.6314329,,School,DRC_All_SCHool_Local
École secondaire Inst Kasenga,-7.2769642,29.7397553,,School,DRC_All_SCHool_Local
École primaire Kapote,-7.9948467,30.4366511,,School,DRC_All_SCHool_Local
École secondaire Lubasha,-7.0970877,29.7112337,,School,DRC_All_SCHool_Local
École primaire Furaha Yetu,-7.0635931,29.7310185,,School,DRC_All_SCHool_Local
École secondaire Itak,-7.1805934,29.6528561,,School,DRC_All_SCHool_Local
École primaire Moba,-7.0641708,29.7292118,,School,DRC_All_SCHool_Local
École primaire Klimantinde,-7.055,29.76,,School,DRC_All_SCHool_Local
École primaire Kashiba,-7.0244382,29.7564467,,School,DRC_All_SCHool_Local
École primaire Kabazo,-7.1888493,29.6414663,,School,DRC_All_SCHool_Local
École primaire Tanga,-7.2638358,29.9310863,,School,DRC_All_SCHool_Local
École secondaire Inst Lyapenda 1,-7.0327137,29.7548956,,School,DRC_All_SCHool_Local
École primaire Zoal,-7.0778855,29.7306896,,School,DRC_All_SCHool_Local
Ecole primaire Kamfisha,-8.4717778,28.9000722,,School,DRC_All_SCHool_Local
École primaire Maseba,-6.9918433,29.5869325,,School,DRC_All_SCHool_Local
École primaire Internat Garçons,-7.5396578,29.7402169,,School,DRC_All_SCHool_Local
École primaire Lyombe,-7.2949277,30.1446639,,School,DRC_All_SCHool_Local
École primaire Kavukwa,-7.4532228,29.5103681,,School,DRC_All_SCHool_Local
École primaire Mwange,-8.1534861,29.9845115,,School,DRC_All_SCHool_Local
École primaire Mwila 1,-7.0360975,29.7582424,,School,DRC_All_SCHool_Local
École primaire Lubelenge,-7.0449634,29.7745251,,School,DRC_All_SCHool_Local
École primaire Katumbaku,-7.076164,29.7318231,,School,DRC_All_SCHool_Local
École primaire Sante We Leza,-7.0781685,29.7200997,,School,DRC_All_SCHool_Local
École secondaire Inst Kaoze,-7.0729345,29.7418604,,School,DRC_All_SCHool_Local
École primaire Maseba,-7.0107801,29.5740529,,School,DRC_All_SCHool_Local
École primaire Pepa,-7.709313,29.7841608,,School,DRC_All_SCHool_Local
École secondaire Inst Nganie,-7.0242048,29.7566883,,School,DRC_All_SCHool_Local
École ITM Moba,-7.0669976,29.7349804,,School,DRC_All_SCHool_Local
Ecole primaire Mpelembe,-8.3956667,28.92525,,School,DRC_All_SCHool_Local
École primaire Katumbaku,-7.0880556,29.7244444,,School,DRC_All_SCHool_Local
Ecole primaire Cawama III,-8.4950762,28.9560985,,School,DRC_All_SCHool_Local
Ecole primaire Kayabala,-7.5710103,29.3548322,,School,DRC_All_SCHool_Local
École primaire Katonge,-7.3349302,29.5226253,,School,DRC_All_SCHool_Local
Ecole primaire Pemba,-8.0275411,29.7291843,,School,DRC_All_SCHool_Local
École primaire Manika 1,-7.3591746,29.822966,,School,DRC_All_SCHool_Local
Ecole primaire Milenda,-8.2734597,29.6116901,,School,DRC_All_SCHool_Local
École secondaire Inst Kabuka,-7.0821364,29.7253247,,School,DRC_All_SCHool_Local
École primaire Regeza,-7.0462996,29.7761342,,School,DRC_All_SCHool_Local
École primaire Mwansakananga,-8.4636944,28.4552778,,School,DRC_All_SCHool_Local
École primaire Mukomba,-7.1286576,29.739952,,School,DRC_All_SCHool_Local
École primaire Kamanya,-7.0869444,29.81,,School,DRC_All_SCHool_Local
École primaire Internat Filles,-7.53989,29.7399289,,School,DRC_All_SCHool_Local
École primaire Kabilozi 2,-7.4350904,29.7585542,,School,DRC_All_SCHool_Local
École primaire Kalizya,-7.0936111,29.7461111,,School,DRC_All_SCHool_Local
École primaire Malango,-7.1760402,29.6469364,,School,DRC_All_SCHool_Local
Ecole primaire Kaansa,-8.4863889,28.9371111,,School,DRC_All_SCHool_Local
École secondaire Lycée Alfajiri,-7.0626783,29.7309685,,School,DRC_All_SCHool_Local
École primaire Mwabu,-8.57175,28.7975833,,School,DRC_All_SCHool_Local
École primaire Lyapenda,-7.5384113,29.7395978,,School,DRC_All_SCHool_Local
Ecole primaire Kasereka,-8.4739444,28.9037222,,School,DRC_All_SCHool_Local
École primaire Kaliza,-7.6313999,29.2665795,,School,DRC_All_SCHool_Local
Ecole primaire Inst Lyapenda,-7.538093,29.7402842,,School,DRC_All_SCHool_Local
École primaire Kasenga,-7.25185,29.7467557,,School,DRC_All_SCHool_Local
École primaire Garenganze,-7.2746613,29.7464558,,School,DRC_All_SCHool_Local
École primaire Bweupe,-7.1290343,29.6955516,,School,DRC_All_SCHool_Local
École secondaire Inst Mukisa,-7.0457058,29.7763338,,School,DRC_All_SCHool_Local
Ecole primaire Kalenge,-8.5579444,28.8084722,,School,DRC_All_SCHool_Local
École primaire Murumbi,-7.0816667,29.7433333,,School,DRC_All_SCHool_Local
École primaire Milenda,-7.5280658,29.541161,,School,DRC_All_SCHool_Local
École primaire Kilama,-7.2745783,29.7459503,,School,DRC_All_SCHool_Local
École primaire Manika 3,-7.3881074,29.8895146,,School,DRC_All_SCHool_Local
École primaire Moliro,-8.239207,30.5743552,,School,DRC_All_SCHool_Local
Ecole Primaire Maendeleo II,-5.9311411,29.192377,,School,DRC_All_SCHool_Local
École Primaire Maendeleo I,-5.9310388,29.1928974,,School,DRC_All_SCHool_Local
École primaire Mapendano,-5.9572811,28.0180334,,School,DRC_All_SCHool_Local
,-5.644821,28.6516336,,School,DRC_All_SCHool_Local
,-5.8725716,28.4528243,,School,DRC_All_SCHool_Local
Ecole Primaire Idaya,-5.9411111,29.165,,School,DRC_All_SCHool_Local
Centre d'alphabetistion Rumbende / Elombe 2,-3.8286944,29.0933333,,School,DRC_All_SCHool_Local
Ecole secondaire Kisokwe,-4.2797477,29.1638541,,School,DRC_All_SCHool_Local
École primaire Cobwe,-4.6953194,28.6463417,,School,DRC_All_SCHool_Local
Ecole secondaire Mukolwe,-3.9220833,29.0994167,,School,DRC_All_SCHool_Local
Ecole primaire Bibokoboko 2,-4.0191667,29.0050556,,School,DRC_All_SCHool_Local
Ecole primaire Magembe,-4.0142239,28.1060344,,School,DRC_All_SCHool_Local
École primaire Abala,-3.921887,28.8668445,,School,DRC_All_SCHool_Local
Ecole secondaire Inst Maarifa,-3.6620056,29.1436722,,School,DRC_All_SCHool_Local
Ecole secondaire Nakiele,-3.8638611,28.9057778,,School,DRC_All_SCHool_Local
Ecole primaire Runundu Cepac,-3.9568889,28.7261111,,School,DRC_All_SCHool_Local
Ecole secondaire Sebele,-4.3088611,29.04425,,School,DRC_All_SCHool_Local
Ecole secondaire Irundu,-3.9067479,28.7472642,,School,DRC_All_SCHool_Local
École primaire Misisi,-4.7675278,28.7054444,,School,DRC_All_SCHool_Local
Ecole secondaire Inst Kananu,-4.3693966,26.9728124,,School,DRC_All_SCHool_Local
École primaire Mukwezi,-3.6759086,29.1393365,,School,DRC_All_SCHool_Local
École primaire Simbi,-4.1633056,28.9395,,School,DRC_All_SCHool_Local
Ecole secondaire Inst Luundo,-3.7200028,29.1168306,,School,DRC_All_SCHool_Local
Ecole primaire Mabenga,-4.2207222,28.3652778,,School,DRC_All_SCHool_Local
Ecole secondaire Inst Mulengezi,-4.1068976,29.0890355,,School,DRC_All_SCHool_Local
Ecole secondaire Kilumbi,-3.8687778,28.9338889,,School,DRC_All_SCHool_Local
Ecole primaire Kisalu,-3.9708087,27.9881564,,School,DRC_All_SCHool_Local
Ecole primaire Tumaini,-3.6611694,29.1391389,,School,DRC_All_SCHool_Local
Ecole primaire Kilebecha,-4.2138333,28.3591944,,School,DRC_All_SCHool_Local
Ecole primaire Mukolwe,-3.9409194,29.1068778,,School,DRC_All_SCHool_Local
Ecole primaire Kanguli,-3.8776667,28.8820556,,School,DRC_All_SCHool_Local
Ecole primaire Yungu,-4.2475751,29.2395817,,School,DRC_All_SCHool_Local
Ecole primaire Ruhemba,-3.9333056,28.6820278,,School,DRC_All_SCHool_Local
École primaire Lubenga,-4.184963,29.0540254,,School,DRC_All_SCHool_Local
Ecole secondaire Inst Neema,-3.7679194,29.0918278,,School,DRC_All_SCHool_Local
Ecole secondaire Inst Musaada,-4.3251297,28.9502097,,School,DRC_All_SCHool_Local
Ecole primaire Akela,-4.5131222,28.8167361,,School,DRC_All_SCHool_Local
Ecole secondaire Inst Kitindi,-3.750625,28.733675,,School,DRC_All_SCHool_Local
Ecole primaire Manga,-4.0846305,29.2273815,,School,DRC_All_SCHool_Local
École primaire Bitongotongo,-4.5744444,28.7879444,,School,DRC_All_SCHool_Local
École primaire Lucimu,-4.6802722,28.6546306,,School,DRC_All_SCHool_Local
Centre d'alphabetistion Nakiele,-3.8634167,28.9060278,,School,DRC_All_SCHool_Local
École primaire Ngalula,-4.9656111,28.81575,,School,DRC_All_SCHool_Local
Ecole secondaire Inst Elobe,-3.6529306,29.1474694,,School,DRC_All_SCHool_Local
Ecole secondaire Inst Namutambala,-4.0707861,27.8619556,,School,DRC_All_SCHool_Local
Ecole primaire Kiziba,-3.9228333,28.7125833,,School,DRC_All_SCHool_Local
École primaire Inst Nakiliza,-4.0367889,27.9940306,,School,DRC_All_SCHool_Local
Ecole secondaire Inst Lulinda,-3.8992444,29.1026972,,School,DRC_All_SCHool_Local
Ecole secondaire Kabingo 1,-3.9921997,28.7186358,,School,DRC_All_SCHool_Local
Ecole secondaire Bakwalumona,-4.4338366,29.2042837,,School,DRC_All_SCHool_Local
Ecole secondaire Inst Tupendane,-3.9922639,29.1047806,,School,DRC_All_SCHool_Local
École primaire Bakwalumona,-4.4676249,29.20946,,School,DRC_All_SCHool_Local
Ecole secondaire Inst Faraja,-3.6823278,29.1366917,,School,DRC_All_SCHool_Local
Institut Mwenge wa Taifa,-4.1074444,29.0944722,,School,DRC_All_SCHool_Local
École primaire Ngalula,-4.96475,28.8102778,,School,DRC_All_SCHool_Local
Ecole secondaire Ecole Technique Agricole,-3.7832111,29.095,,School,DRC_All_SCHool_Local
École primaire Lukongo,-4.2920591,28.954976,,School,DRC_All_SCHool_Local
École primaire Butale Kikumba,-4.7976667,28.7122222,,School,DRC_All_SCHool_Local
Ecole primaire Ushirika,-3.9982694,29.1017972,,School,DRC_All_SCHool_Local
École primaire Lulinda,-3.8978861,29.1034,,School,DRC_All_SCHool_Local
École primaire Ngusu,-4.1995556,28.3085556,,School,DRC_All_SCHool_Local
Ecole Inst Technique Medical,-3.8199194,29.0961583,,School,DRC_All_SCHool_Local
Ecole secondaire Inst Mwangaza,-4.1744449,28.1828549,,School,DRC_All_SCHool_Local
École primaire Kakenge 1,-3.9589722,28.7606111,,School,DRC_All_SCHool_Local
École primaire Tuungane,-3.7914139,29.0957583,,School,DRC_All_SCHool_Local
École primaire Kaseke,-4.2678333,29.0417222,,School,DRC_All_SCHool_Local
École primaire Kibundu,-3.9916167,29.1056694,,School,DRC_All_SCHool_Local
Ecole primaire Yungu,-4.1884444,29.2513056,,School,DRC_All_SCHool_Local
Ecole secondaire Abala,-3.9218244,28.8668422,,School,DRC_All_SCHool_Local
Ecole secondaire Institut Amani,-4.2046134,29.0364581,,School,DRC_All_SCHool_Local
École primaire Zawadi,-3.8820889,29.1009194,,School,DRC_All_SCHool_Local
Ecole secondaire Inst Some,-4.1303056,29.2116472,,School,DRC_All_SCHool_Local
École primaire Misisi,-4.7632077,28.6981507,,School,DRC_All_SCHool_Local
Ecole secondaire Inst Lweba,-4.0018975,29.0979553,,School,DRC_All_SCHool_Local
École primaire Lubishako Ishebwe,-4.85625,28.74225,,School,DRC_All_SCHool_Local
Ecole primaire Aocha,-3.7907972,29.0924361,,School,DRC_All_SCHool_Local
Ecole secondaire Bukuchu,-4.0416599,28.0082711,,School,DRC_All_SCHool_Local
Ecole secondaire Inst Madegu,-3.9414722,28.7332639,,School,DRC_All_SCHool_Local
Ecole secondaire Inst Esumbe,-4.0433362,28.0122719,,School,DRC_All_SCHool_Local
Ecole primaire Bulumba,-3.7855639,29.0933528,,School,DRC_All_SCHool_Local
Ecole primaire Abela,-4.0386389,29.0868056,,School,DRC_All_SCHool_Local
Ecole secondaire Basikikela,-4.5457222,29.1584167,,School,DRC_All_SCHool_Local
Ecole secondaire Inst Malinde,-4.2008649,29.0372826,,School,DRC_All_SCHool_Local
Ecole secondaire Inst Nundu,-3.8198611,29.0928472,,School,DRC_All_SCHool_Local
Ecole primaire Talama,-4.9631389,29.1110833,,School,DRC_All_SCHool_Local
Ecole secondaire Inst De Fizi,-4.3415944,28.9417889,,School,DRC_All_SCHool_Local
Ecole secondaire Etea,-3.8720556,28.8791944,,School,DRC_All_SCHool_Local
École primaire conventionnée protestante (26e CMLC),-4.3053954,28.8200516,,School,DRC_All_SCHool_Local
Ecole primaire Kaboke2,-3.8330889,29.0965528,,School,DRC_All_SCHool_Local
Ecole primaire Kakomba,-4.1619632,29.0624267,,School,DRC_All_SCHool_Local
École primaire Lubonja,-4.6574582,28.7666799,,School,DRC_All_SCHool_Local
Ecole primaire Kabingo 1,-3.9798889,28.7256667,,School,DRC_All_SCHool_Local
Ecole secondaire Kitavi,-3.8906217,28.7463159,,School,DRC_All_SCHool_Local
Ecole secondaire Kakenge 2,-3.953,28.7757222,,School,DRC_All_SCHool_Local
Ecole primaire Bukuchu,-4.0324272,27.9948587,,School,DRC_All_SCHool_Local
École Secondaire Inst Temoin,-3.6875556,29.1331444,,School,DRC_All_SCHool_Local
École primaire Bibokoboko 1,-4.02875,28.9927778,,School,DRC_All_SCHool_Local
Ecole primaire A'amba,-3.7199167,29.1166111,,School,DRC_All_SCHool_Local
École primaire Nemba 1 et Institut Nemba 1,-4.3325149,29.091152,,School,DRC_All_SCHool_Local
École primaire Amani,-4.0030028,29.0994167,,School,DRC_All_SCHool_Local
Ecole primaire Alenga,-4.0993326,29.089495,,School,DRC_All_SCHool_Local
Ecole primaire Mishashu,-3.8999722,28.7084444,,School,DRC_All_SCHool_Local
École primaire Maendeleo,-3.7870139,29.0900611,,School,DRC_All_SCHool_Local
Ecole primaire Centre Commercial,-4.2982273,28.9462944,,School,DRC_All_SCHool_Local
École secondaire Lulimba Centre,-4.6960833,28.6463889,,School,DRC_All_SCHool_Local
Ecole secondaire Runundu Cepac,-3.9518596,28.7283844,,School,DRC_All_SCHool_Local
Centre d'alphabetistion Mabenga,-4.2199444,28.3675556,,School,DRC_All_SCHool_Local
Ecole primaire Sangya,-3.81995,29.0938611,,School,DRC_All_SCHool_Local
Ecole secondaire Inst Sanga,-4.0779694,27.9176611,,School,DRC_All_SCHool_Local
Ecole primaire Kalingi I,-3.8573056,28.7740972,,School,DRC_All_SCHool_Local
École primaire Mukela,-4.1511667,28.8860278,,School,DRC_All_SCHool_Local
Ecole primaire Isungu,-3.8889486,29.0992836,,School,DRC_All_SCHool_Local
École primaire Basikikela,-4.5525957,29.155544,,School,DRC_All_SCHool_Local
Ecole secondaire Inst Umoja,-4.0999581,29.0961713,,School,DRC_All_SCHool_Local
École primaire Misufi,-4.2419437,28.9128228,,School,DRC_All_SCHool_Local
Ecole primaire Mukwezi,-3.6826389,29.137,,School,DRC_All_SCHool_Local
École primaire Mkobwe,-4.694725,28.6478472,,School,DRC_All_SCHool_Local
Ecole secondaire Masha,-3.9634167,28.6908611,,School,DRC_All_SCHool_Local
Ecole primaire Yungu,-4.2476778,29.2395408,,School,DRC_All_SCHool_Local
École primaire Lubishako,-4.8614722,28.7559444,,School,DRC_All_SCHool_Local
École primaire Mboko,-3.7822056,29.0965389,,School,DRC_All_SCHool_Local
Ecole secondaire Inst Mukoboshi,-4.0814322,27.954808,,School,DRC_All_SCHool_Local
École Primaire A'amba,-3.7288611,29.1166667,,School,DRC_All_SCHool_Local
Ecole secondaire Inst Lubinga,-4.1593944,28.2133333,,School,DRC_All_SCHool_Local
Ecole primaire Katunga,-3.8762694,29.0954167,,School,DRC_All_SCHool_Local
Ecole primaire Inst Bikuchu,-4.0380389,27.9942889,,School,DRC_All_SCHool_Local
École primaire Nakiele,-3.8633333,28.9060278,,School,DRC_All_SCHool_Local
Ecole primaire Kyengye,-3.8417306,29.0967056,,School,DRC_All_SCHool_Local
Ecole primaire Tchaboba,-3.8068139,29.1017056,,School,DRC_All_SCHool_Local
Ecole primaire Kafulo,-4.1126111,28.982,,School,DRC_All_SCHool_Local
Ecole secondaire Kalundja,-4.0640713,29.0862502,,School,DRC_All_SCHool_Local
Ecole primaire Kabanga,-4.2629722,29.1688333,,School,DRC_All_SCHool_Local
Ecole secondaire Rumbende / Elombe 2,-3.8462778,29.0920556,,School,DRC_All_SCHool_Local
Ecole secondaire Inst Tech. Asec,-4.2586389,29.0397778,,School,DRC_All_SCHool_Local
École primaire Kilubi,-4.3405976,27.1604062,,School,DRC_All_SCHool_Local
École primaire Kahunga,-3.8824139,29.0986556,,School,DRC_All_SCHool_Local
Ecole primaire Katupu,-3.9601165,28.0862178,,School,DRC_All_SCHool_Local
Ecole primaire Kishula,-4.1088333,28.8806389,,School,DRC_All_SCHool_Local
École primaire Apemba,-3.8462075,29.0919722,,School,DRC_All_SCHool_Local
Ecole secondaire Inst Kichungwe,-4.0925944,28.1483694,,School,DRC_All_SCHool_Local
Ecole secondaire Inst Kaboke 3,-3.8417722,29.0983694,,School,DRC_All_SCHool_Local
Ecole secondaire Inst Biesse,-3.6757778,29.1391111,,School,DRC_All_SCHool_Local
Ecole primaire Lubumba,-3.9719972,29.1077139,,School,DRC_All_SCHool_Local
Ecole primaire Talama,-4.9651667,29.1119167,,School,DRC_All_SCHool_Local
École primaire Kasakwa,-4.3017433,28.84291,,School,DRC_All_SCHool_Local
Ecole primaire Lusambo,-3.8586,29.0906056,,School,DRC_All_SCHool_Local
Ecole secondaire Centre Commercial,-4.2953076,28.9410405,,School,DRC_All_SCHool_Local
Ecole primaire Tundwa,-3.7748764,29.0944316,,School,DRC_All_SCHool_Local
École primaire Amani Ake,-3.6788667,29.1371806,,School,DRC_All_SCHool_Local
Ecole secondaire Kikonde,-4.4770392,29.0003382,,School,DRC_All_SCHool_Local
École primaire Lulimba Centre,-4.6894095,28.6490738,,School,DRC_All_SCHool_Local
Centre d'alphabetistion Kilumbi,-3.8675556,28.9343056,,School,DRC_All_SCHool_Local
Ecole primaire Evasion,-4.0590397,28.0261271,,School,DRC_All_SCHool_Local
Ecole secondaire Complexe Solaire Isoko,-4.1111306,29.0945417,,School,DRC_All_SCHool_Local
Ecole primaire Pungwe,-3.9718611,28.8720278,,School,DRC_All_SCHool_Local
Ecole primaire Bukuchu,-4.0428333,28.0104167,,School,DRC_All_SCHool_Local
Ecole secondaire Madegu,-3.9355,28.7303611,,School,DRC_All_SCHool_Local
École primaire Mabenga,-4.2182222,28.3661389,,School,DRC_All_SCHool_Local
Ecole primaire Rutigita / Monyi,-3.9886944,28.6829444,,School,DRC_All_SCHool_Local
Ecole secondaire Ruhemba,-3.9333333,28.6820278,,School,DRC_All_SCHool_Local
Ecole primaire Lubomo,-4.1885562,29.2513177,,School,DRC_All_SCHool_Local
École primaire Elimionga,-3.9220639,29.0995028,,School,DRC_All_SCHool_Local
Ecole primaire Alenga,-4.1076338,29.0852588,,School,DRC_All_SCHool_Local
Ecole primaire Akuku/akumba,-3.9477778,28.9891389,,School,DRC_All_SCHool_Local
École primaire Yungu,-4.0827658,29.2283325,,School,DRC_All_SCHool_Local
Ecole secondaire Inst Alembe,-3.791375,29.095125,,School,DRC_All_SCHool_Local
Ecole primaire Centre Commercial,-4.2949686,28.9409324,,School,DRC_All_SCHool_Local
École secondaire Misisi,-4.762829,28.6982621,,School,DRC_All_SCHool_Local
Ecole primaire Mmandama,-3.8438639,29.0947639,,School,DRC_All_SCHool_Local
École primaire Bakwalumona,-4.4872304,29.2133829,,School,DRC_All_SCHool_Local
École primaire Bachanga Sud,-4.9079444,28.7689722,,School,DRC_All_SCHool_Local
École primaire Etea,-3.877,28.8793889,,School,DRC_All_SCHool_Local
Ecole primaire Sebele,-4.3082376,29.0436112,,School,DRC_All_SCHool_Local
Ecole primaire Nyawalimba,-3.9799444,28.7256667,,School,DRC_All_SCHool_Local
Ecole primaire Basikanga,-4.1841389,28.284,,School,DRC_All_SCHool_Local
Ecole primaire Kivumu,-3.9113611,28.7006111,,School,DRC_All_SCHool_Local
École primaire Rumbende / Elombe 2,-3.8255263,29.093839,,School,DRC_All_SCHool_Local
École primaire Bidegu 1,-3.8974722,28.7765833,,School,DRC_All_SCHool_Local
Ecole primaire Basikikela,-4.5456944,29.1584444,,School,DRC_All_SCHool_Local
École primaire Mushilwa,-4.1375,28.9980278,,School,DRC_All_SCHool_Local
École primaire Andale,-4.0111667,29.0968611,,School,DRC_All_SCHool_Local
École primaire Madegu,-3.9355556,28.7303611,,School,DRC_All_SCHool_Local
Ecole primaire Kitumaini,-4.3009091,28.9420943,,School,DRC_All_SCHool_Local
Ecole secondaire Inst Lubumba,-3.9727028,29.1076556,,School,DRC_All_SCHool_Local
École primaire Kichanga,-4.0649444,28.8815,,School,DRC_All_SCHool_Local
École primaire Mama Yemo,-4.1039144,29.0944136,,School,DRC_All_SCHool_Local
Ecole primaire Lwiko,-4.02225,28.7224444,,School,DRC_All_SCHool_Local
Ecole primaire Makola,-4.0448826,28.0977853,,School,DRC_All_SCHool_Local
Ecole primaire Alenga,-4.1019777,29.0906178,,School,DRC_All_SCHool_Local
École primaire Mehembe,-3.9509475,29.1066315,,School,DRC_All_SCHool_Local
Ecole secondaire Inst Waubwela,-3.7875611,29.0981778,,School,DRC_All_SCHool_Local
Ecole primaire Inst Kakono,-4.1701779,28.1727371,,School,DRC_All_SCHool_Local
Ecole secondaire Lusenda,-3.8822778,29.09875,,School,DRC_All_SCHool_Local
Ecole secondaire Inst Ntanganyika,-3.7164888,29.120285,,School,DRC_All_SCHool_Local
Ecole primaire Talama,-4.9636389,29.1113889,,School,DRC_All_SCHool_Local
Ecole primaire Kitavi,-3.8906055,28.7463769,,School,DRC_All_SCHool_Local
Ecole primaire Sayuni,-4.3003054,28.9416332,,School,DRC_All_SCHool_Local
École primaire Boko,-3.7929861,29.0914722,,School,DRC_All_SCHool_Local
École primaire Kikonde,-4.4767654,29.0004951,,School,DRC_All_SCHool_Local
École primaire Bitobolo,-3.959143,29.1053532,,School,DRC_All_SCHool_Local
Ecole primaire Mizimu / Dine,-4.0926389,29.2587778,,School,DRC_All_SCHool_Local
Ecole primaire Irundu,-3.9068056,28.7473611,,School,DRC_All_SCHool_Local
Ecole primaire Abela,-4.0330278,29.0894167,,School,DRC_All_SCHool_Local
Ecole primaire Kisokwe,-4.2796899,29.1638537,,School,DRC_All_SCHool_Local
Ecole primaire A'amba,-3.7162778,29.1196944,,School,DRC_All_SCHool_Local
Ecole secondaire Kihungwe,-4.0843333,28.1538056,,School,DRC_All_SCHool_Local
Ecole secondaire Inst Itm,-3.74765,28.7426139,,School,DRC_All_SCHool_Local
Ecole secondaire Institut du Lac,-3.7893489,29.0917592,,School,DRC_All_SCHool_Local
Ecole secondaire Inst Piluka,-3.6976889,29.128675,,School,DRC_All_SCHool_Local
Ecole primaire Kibamba,-4.7949728,29.0967805,,School,DRC_All_SCHool_Local
École primaire Kakunga,-4.3251844,28.9502325,,School,DRC_All_SCHool_Local
École Secondaire Inst techn Agr. Majaga,-3.7287444,29.1164111,,School,DRC_All_SCHool_Local
École primaire Kabogo 1 2 3,-4.5758611,29.1388611,,School,DRC_All_SCHool_Local
Ecole primaire Lycï¿½e Mama Yemo,-4.1080278,29.0967222,,School,DRC_All_SCHool_Local
Ecole secondaire Rutigita / Monyi,-3.9886667,28.6829444,,School,DRC_All_SCHool_Local
École primaire Katalukulu,-4.2588401,29.0395867,,School,DRC_All_SCHool_Local
Ecole primaire Kabongozi,-3.7682861,29.0918028,,School,DRC_All_SCHool_Local
Ecole primaire Mulamashi,-4.5288361,28.502175,,School,DRC_All_SCHool_Local
Ecole primaire Lwandiko,-4.6642609,28.5746359,,School,DRC_All_SCHool_Local
Ecole secondaire Inst Kirongozi,-2.6976333,26.8571556,,School,DRC_All_SCHool_Local
École primaire Fataki II,-2.6554472,26.4044556,,School,DRC_All_SCHool_Local
École primaire Penemagu,-3.2462667,26.9135211,,School,DRC_All_SCHool_Local
Ecole secondaire Inst Sabiazo,-2.9968153,26.2009399,,School,DRC_All_SCHool_Local
Ecole secondaire Inst Wamanga,-3.3124972,27.0159472,,School,DRC_All_SCHool_Local
École primaire Bobela,-2.5680083,26.6254167,,School,DRC_All_SCHool_Local
Ecole secondaire Itp Shada,-2.7069306,27.3325528,,School,DRC_All_SCHool_Local
Ecole primaire Lubulani,-3.7005556,26.6819444,,School,DRC_All_SCHool_Local
Ecole primaire Inst Kyelu,-2.8612833,27.0961722,,School,DRC_All_SCHool_Local
Ecole primaire Luligi,-2.5120648,27.3263971,,School,DRC_All_SCHool_Local
Ecole secondaire Inst Kangela,-2.6045194,26.7791056,,School,DRC_All_SCHool_Local
Ecole secondaire Inst De Ngoma,-3.5415221,26.2890843,,School,DRC_All_SCHool_Local
Ecole primaire Kankisi,-2.8734056,27.1836444,,School,DRC_All_SCHool_Local
Ecole secondaire Inst Mabikwa,-3.3896944,26.1773722,,School,DRC_All_SCHool_Local
Ecole primaire Kibanda,-2.4943583,27.5389389,,School,DRC_All_SCHool_Local
École primaire Mulende,-3.1088609,26.4678217,,School,DRC_All_SCHool_Local
Ecole primaire Mukulukusu,-3.4596806,27.0163361,,School,DRC_All_SCHool_Local
Ecole primaire Kabalibali,-3.5980278,26.6681111,,School,DRC_All_SCHool_Local
Ecole secondaire Inst Mibake,-2.5859639,26.6176778,,School,DRC_All_SCHool_Local
Ecole primaire Makembe,-3.1511444,27.0257694,,School,DRC_All_SCHool_Local
Ecole primaire Minoro,-2.3864889,27.1704028,,School,DRC_All_SCHool_Local
Ecole primaire Kangela,-2.9139889,26.7948528,,School,DRC_All_SCHool_Local
Ecole secondaire Ita Mukula,-2.6908083,26.3621528,,School,DRC_All_SCHool_Local
École primaire Katebwa,-3.1944,26.7951944,,School,DRC_All_SCHool_Local
Ecole secondaire Inst Katumpi,-3.4722306,26.9625028,,School,DRC_All_SCHool_Local
Ecole secondaire Lukukaongo,-2.5675306,26.6254583,,School,DRC_All_SCHool_Local
Ecole primaire Ikisa,-3.5144444,26.9002778,,School,DRC_All_SCHool_Local
Ecole primaire Dima,-2.5973917,26.6558528,,School,DRC_All_SCHool_Local
Ecole secondaire Inst Kakola,-3.7756167,26.4064083,,School,DRC_All_SCHool_Local
École primaire Itabala,-2.5986444,26.645075,,School,DRC_All_SCHool_Local
Ecole secondaire Inst Musuku,-2.5600302,26.6228355,,School,DRC_All_SCHool_Local
Ecole primaire Kimbondi,-2.9626667,27.1848417,,School,DRC_All_SCHool_Local
Ecole primaire Tujikaze,-2.5708222,27.2713472,,School,DRC_All_SCHool_Local
Ecole secondaire Inst Mungano,-3.5110111,26.2348861,,School,DRC_All_SCHool_Local
Ecole primaire Kipombi,-2.7816306,27.2449056,,School,DRC_All_SCHool_Local
Ecole primaire Biamito,-3.6070139,26.2522694,,School,DRC_All_SCHool_Local
École primaire Keigo,-3.0265361,26.4137694,,School,DRC_All_SCHool_Local
Ecole primaire Eritambia,-2.5849028,26.7119028,,School,DRC_All_SCHool_Local
École primaire Peneidomba,-3.6040299,26.6647358,,School,DRC_All_SCHool_Local
École primaire Kimbondi,-2.5305306,27.3006222,,School,DRC_All_SCHool_Local
Ecole secondaire Inst Kaiti Katembo,-2.5715667,26.7444833,,School,DRC_All_SCHool_Local
Ecole primaire Kisende,-2.8551294,26.8416551,,School,DRC_All_SCHool_Local
Ecole primaire Itampo,-2.6903139,26.3623556,,School,DRC_All_SCHool_Local
Ecole secondaire Inst Kibonge,-3.1903583,26.8471278,,School,DRC_All_SCHool_Local
École primaire Musumi,-3.6522333,26.3731611,,School,DRC_All_SCHool_Local
École primaire Matazi,-2.7392028,26.24975,,School,DRC_All_SCHool_Local
École primaire Babingwa,-3.3240944,27.0283972,,School,DRC_All_SCHool_Local
Ecole primaire Kalema,-2.6122333,26.5985778,,School,DRC_All_SCHool_Local
Ecole primaire Nyankungu,-3.0502389,26.2433139,,School,DRC_All_SCHool_Local
Ecole primaire Kisubi,-2.5643722,26.6297056,,School,DRC_All_SCHool_Local
Ecole primaire Mukoko,-3.3715278,27.0544528,,School,DRC_All_SCHool_Local
Ecole secondaire Inst Kimbala,-2.5830278,26.7211111,,School,DRC_All_SCHool_Local
Ecole primaire Lukabya,-2.8651497,27.1858944,,School,DRC_All_SCHool_Local
Ecole secondaire Inst Kabilo,-3.5945333,26.6692639,,School,DRC_All_SCHool_Local
Ecole primaire Inst Matili,-2.8476689,27.1927006,,School,DRC_All_SCHool_Local
Ecole secondaire Yela,-2.4427872,27.3843755,,School,DRC_All_SCHool_Local
Ecole secondaire Inst Lumande,-2.5833139,26.6518333,,School,DRC_All_SCHool_Local
Ecole secondaire Inst Musiwa,-3.6660361,26.5349528,,School,DRC_All_SCHool_Local
École primaire Mankulu Kizikibi,-2.7050118,27.3252599,,School,DRC_All_SCHool_Local
Ecole primaire Mundenga,-3.3981707,26.4328655,,School,DRC_All_SCHool_Local
Ecole primaire Kingombe Bali,-3.1990194,26.0427028,,School,DRC_All_SCHool_Local
Ecole secondaire Inst Tupinda,-3.8036583,26.4577028,,School,DRC_All_SCHool_Local
Ecole primaire El Madini,-2.5730028,26.620375,,School,DRC_All_SCHool_Local
École primaire Asumani,-3.1460944,26.7169056,,School,DRC_All_SCHool_Local
Ecole primaire Lubambania,-2.4372054,27.3940655,,School,DRC_All_SCHool_Local
Ecole secondaire Inst Salubezya,-2.9821417,26.7472556,,School,DRC_All_SCHool_Local
Ecole secondaire Inst Laheki,-2.7456833,26.24505,,School,DRC_All_SCHool_Local
Ecole primaire Kafulia,-3.1157667,26.9087917,,School,DRC_All_SCHool_Local
Ecole secondaire Inst Asumani,-3.5632833,26.8281778,,School,DRC_All_SCHool_Local
Ecole primaire Misisi,-2.5708111,26.7444639,,School,DRC_All_SCHool_Local
École primaire Luyamba,-3.5623611,26.8275139,,School,DRC_All_SCHool_Local
Ecole primaire Ngelingeli,-2.590125,26.6436028,,School,DRC_All_SCHool_Local
Ecole primaire Lomuna,-3.8039694,26.45505,,School,DRC_All_SCHool_Local
Ecole secondaire Inst Itv/ulindi,-2.5773444,26.7494806,,School,DRC_All_SCHool_Local
École primaire Salukwako,-2.5939028,26.689725,,School,DRC_All_SCHool_Local
Ecole secondaire Inst Lukabya,-2.8640722,27.184975,,School,DRC_All_SCHool_Local
Ecole primaire Nyanzi,-2.4414012,27.4008793,,School,DRC_All_SCHool_Local
Ecole primaire Mwanankusu,-3.655875,26.5256472,,School,DRC_All_SCHool_Local
Ecole secondaire Inst Mwanankusu,-3.6535806,26.5304583,,School,DRC_All_SCHool_Local
Ecole secondaire Inst Kagela,-3.2026557,26.0441168,,School,DRC_All_SCHool_Local
Ecole secondaire Ipk,-2.5702944,26.6189583,,School,DRC_All_SCHool_Local
Ecole primaire (kilunga) Sifa,-3.675,26.6775,,School,DRC_All_SCHool_Local
Ecole primaire Nakenge,-2.592125,26.6498722,,School,DRC_All_SCHool_Local
Ecole primaire Kagolomba,-2.7705639,26.8965861,,School,DRC_All_SCHool_Local
Ecole primaire Utukufu,-2.6357833,26.4396028,,School,DRC_All_SCHool_Local
Ecole secondaire Inst Isalimia,-3.1793944,27.030775,,School,DRC_All_SCHool_Local
Ecole secondaire Inst Kambili,-3.3874083,27.0525389,,School,DRC_All_SCHool_Local
Ecole primaire Kilinga,-2.5985111,26.6867778,,School,DRC_All_SCHool_Local
Ecole secondaire Inst Assia,-3.2986806,26.0827278,,School,DRC_All_SCHool_Local
Ecole secondaire Inst Mupende,-3.5988597,26.6663013,,School,DRC_All_SCHool_Local
Ecole secondaire Inst Mukumbe,-3.5686333,26.7914556,,School,DRC_All_SCHool_Local
Ecole primaire Malumba,-2.5813056,26.6426111,,School,DRC_All_SCHool_Local
École primaire Wasezya,-2.9211167,27.1830306,,School,DRC_All_SCHool_Local
Ecole primaire Kitabi,-3.5966667,26.6666667,,School,DRC_All_SCHool_Local
Ecole secondaire Inst Lwamp,-2.8725528,27.1833778,,School,DRC_All_SCHool_Local
Ecole primaire Maseke,-2.6056917,26.6069528,,School,DRC_All_SCHool_Local
Ecole primaire Ngoma / Samweli,-3.5417624,26.2896804,,School,DRC_All_SCHool_Local
École primaire Miswaki,-2.9104611,27.1950944,,School,DRC_All_SCHool_Local
Ecole secondaire Inst De Kayuyu,-3.6526167,26.3664417,,School,DRC_All_SCHool_Local
École primaire Mankulu,-3.133275,26.3059056,,School,DRC_All_SCHool_Local
Ecole secondaire Inst Baganda,-2.5923583,26.6488611,,School,DRC_All_SCHool_Local
Ecole primaire Lusukula,-2.7456479,26.9173163,,School,DRC_All_SCHool_Local
Ecole primaire Lukumba,-3.0803528,27.0311389,,School,DRC_All_SCHool_Local
Ecole primaire Kachungu,-2.4410931,27.3841579,,School,DRC_All_SCHool_Local
Ecole primaire Kahundi,-2.6675917,26.8237111,,School,DRC_All_SCHool_Local
Ecole primaire Kenye,-2.6464639,26.4738306,,School,DRC_All_SCHool_Local
Ecole secondaire Bitingo,-3.1867139,26.7788694,,School,DRC_All_SCHool_Local
Ecole primaire Tengeneza,-2.5924778,26.6497778,,School,DRC_All_SCHool_Local
Ecole secondaire Inst Mogoma,-3.2485722,27.0292167,,School,DRC_All_SCHool_Local
Ecole secondaire Itpk,-2.5705083,26.6205944,,School,DRC_All_SCHool_Local
Ecole primaire Kinamina,-3.0001568,26.3216083,,School,DRC_All_SCHool_Local
Ecole secondaire Inst De Lomuna,-3.8032011,26.4547584,,School,DRC_All_SCHool_Local
Ecole secondaire Makungu,-2.5871889,26.6452111,,School,DRC_All_SCHool_Local
Ecole primaire Samweli,-3.5399933,26.2829916,,School,DRC_All_SCHool_Local
Ecole primaire Musuku,-2.5590139,26.6217417,,School,DRC_All_SCHool_Local
Ecole primaire Byankungu,-2.6934211,27.2895225,,School,DRC_All_SCHool_Local
Ecole primaire Bikili,-2.8705024,27.186915,,School,DRC_All_SCHool_Local
Ecole primaire Ikunza,-2.571475,27.2738972,,School,DRC_All_SCHool_Local
Ecole primaire Kaliba,-3.6235121,26.3342456,,School,DRC_All_SCHool_Local
Ecole secondaire Inst Kangali,-3.6558083,26.3650667,,School,DRC_All_SCHool_Local
Ecole secondaire Inst Sabiazo,-3.2713528,26.0784833,,School,DRC_All_SCHool_Local
École primaire Kikungwa,-2.5727694,26.7443778,,School,DRC_All_SCHool_Local
Ecole secondaire Inst Kalima,-2.5703333,26.6281694,,School,DRC_All_SCHool_Local
Ecole primaire Mimbite,-2.9784278,26.7480944,,School,DRC_All_SCHool_Local
Ecole primaire Lusenge,-3.1851472,26.7791806,,School,DRC_All_SCHool_Local
Ecole secondaire Inst Elila,-2.8195861,26.8791111,,School,DRC_All_SCHool_Local
Ecole primaire N'solo,-3.1929139,27.0282222,,School,DRC_All_SCHool_Local
Ecole secondaire Inst Patemo,-3.2734611,26.9602583,,School,DRC_All_SCHool_Local
École primaire Kingombe,-3.17075,26.3898972,,School,DRC_All_SCHool_Local
Ecole primaire Mwambala,-3.7414398,26.3809289,,School,DRC_All_SCHool_Local
École primaire Tchalumba,-3.4735639,26.9770806,,School,DRC_All_SCHool_Local
Centre d'alphabetistion Alphabetisation Des Mamans,-2.593625,26.6500861,,School,DRC_All_SCHool_Local
Ecole secondaire Inst Mizombo,-2.8690028,27.1763444,,School,DRC_All_SCHool_Local
Ecole secondaire Inst Tubia,-3.5896104,26.6774927,,School,DRC_All_SCHool_Local
Ecole primaire Nyalubwe,-2.6777415,27.336853,,School,DRC_All_SCHool_Local
Ecole primaire Makunzu,-2.5896389,26.6576861,,School,DRC_All_SCHool_Local
Ecole primaire Kasambula,-3.6535278,26.3666083,,School,DRC_All_SCHool_Local
Ecole secondaire Inst Bangoma,-2.8691047,27.1796452,,School,DRC_All_SCHool_Local
Ecole secondaire Inst Micenda,-2.4366165,27.39046,,School,DRC_All_SCHool_Local
Ecole primaire Mabanga,-3.4352504,26.2255368,,School,DRC_All_SCHool_Local
École primaire Kapela,-2.9935829,26.3549887,,School,DRC_All_SCHool_Local
Ecole primaire Sikuzani,-2.5651333,26.6367028,,School,DRC_All_SCHool_Local
École primaire Lugungu,-2.5764194,27.2684083,,School,DRC_All_SCHool_Local
Ecole secondaire Lumbeku,-2.5813389,26.6426278,,School,DRC_All_SCHool_Local
École primaire Mukombe,-2.6954778,26.8560139,,School,DRC_All_SCHool_Local
Ecole secondaire Inst Fataki,-2.6408806,26.407075,,School,DRC_All_SCHool_Local
Ecole secondaire Inst Sumaili,-3.1446778,26.7207833,,School,DRC_All_SCHool_Local
Ecole primaire Ii Mibake,-2.5983806,26.6532667,,School,DRC_All_SCHool_Local
École primaire Kantamba,-3.2609611,26.9494278,,School,DRC_All_SCHool_Local
Ecole primaire Elimu,-2.5900417,26.6534306,,School,DRC_All_SCHool_Local
École primaire Butumba,-3.2707278,26.07845,,School,DRC_All_SCHool_Local
Ecole primaire Kampene,-3.5882927,26.6826476,,School,DRC_All_SCHool_Local
Ecole secondaire Inst Kamisuku,-2.5595,26.6234083,,School,DRC_All_SCHool_Local
Ecole secondaire Inst Amini,-2.5888139,26.6419361,,School,DRC_All_SCHool_Local
Ecole primaire Matili,-2.8598722,27.185525,,School,DRC_All_SCHool_Local
Ecole secondaire Inst De Kampene,-3.5969972,26.6660972,,School,DRC_All_SCHool_Local
Ecole primaire Kisasa,-2.8780472,27.1302806,,School,DRC_All_SCHool_Local
Ecole primaire Bukafu,-2.3611806,27.1654389,,School,DRC_All_SCHool_Local
École primaire Kisubi,-3.4346634,26.3216213,,School,DRC_All_SCHool_Local
Ecole secondaire Inst Kakisingi,-2.9074639,27.1996972,,School,DRC_All_SCHool_Local
Ecole primaire Moke,-3.6620417,26.4363,,School,DRC_All_SCHool_Local
Ecole primaire Lumba,-2.5215133,27.6144896,,School,DRC_All_SCHool_Local
Ecole secondaire Inst Dambwe,-3.1228806,26.3013417,,School,DRC_All_SCHool_Local
Ecole primaire Mwamini,-2.5822,26.7207389,,School,DRC_All_SCHool_Local
Ecole secondaire Inst Penemisenga,-2.9109233,26.7940394,,School,DRC_All_SCHool_Local
Ecole primaire Peneyimba,-3.0789806,27.0023694,,School,DRC_All_SCHool_Local
Ecole primaire Ii Walemba,-2.7972194,26.8922579,,School,DRC_All_SCHool_Local
Ecole primaire Museme,-2.6302139,26.514375,,School,DRC_All_SCHool_Local
Ecole secondaire Inst Kapela,-3.2165583,27.03185,,School,DRC_All_SCHool_Local
École primaire Ipuma,-3.3502278,27.06165,,School,DRC_All_SCHool_Local
Ecole secondaire Inst Ngelingeli,-2.5884389,26.6419,,School,DRC_All_SCHool_Local
Ecole primaire Kitangi,-3.5659583,26.793325,,School,DRC_All_SCHool_Local
Ecole secondaire Inst Mukwale,-2.5715056,26.6385111,,School,DRC_All_SCHool_Local
École primaire Lukamba,-2.8770556,27.1181111,,School,DRC_All_SCHool_Local
École primaire Kalokola,-3.801661,26.4547894,,School,DRC_All_SCHool_Local
Ecole primaire Masanga,-2.5154944,27.1780778,,School,DRC_All_SCHool_Local
Ecole secondaire Inst Butezi,-2.5723528,26.7459194,,School,DRC_All_SCHool_Local
École primaire Samwele,-3.5410833,26.2822944,,School,DRC_All_SCHool_Local
École primaire Ibaga,-2.8605861,27.1867917,,School,DRC_All_SCHool_Local
Ecole primaire Kasangati,-2.4720972,27.1731444,,School,DRC_All_SCHool_Local
École primaire Mantini,-3.360625,26.1454833,,School,DRC_All_SCHool_Local
Ecole primaire Moyo,-3.3358533,26.4564601,,School,DRC_All_SCHool_Local
Ecole secondaire Inst Kisanga I,-2.6082889,26.6032611,,School,DRC_All_SCHool_Local
Ecole primaire Kangumbu,-3.1585083,26.8757028,,School,DRC_All_SCHool_Local
Ecole primaire Lugungu,-2.5658778,27.2678444,,School,DRC_All_SCHool_Local
Ecole primaire Lusolo,-2.651525,26.7980139,,School,DRC_All_SCHool_Local
École primaire Fataki Centre,-2.6483944,26.40615,,School,DRC_All_SCHool_Local
Ecole primaire Mugobwa,-3.1845611,26.7357028,,School,DRC_All_SCHool_Local
Ecole primaire Bukama,-3.4883333,26.9222222,,School,DRC_All_SCHool_Local
Ecole secondaire Inst Mabikwa,-2.5702472,26.6283139,,School,DRC_All_SCHool_Local
École primaire Pwalale,-3.211575,26.4828556,,School,DRC_All_SCHool_Local
Ecole secondaire Inst Nyampeugele,-2.8734889,27.1835944,,School,DRC_All_SCHool_Local
Ecole primaire Lembelembe,-3.7055167,26.3619222,,School,DRC_All_SCHool_Local
Ecole secondaire Inst Penemagu,-3.2472472,26.9143615,,School,DRC_All_SCHool_Local
Ecole secondaire Lilyalya,-2.6839546,27.3423327,,School,DRC_All_SCHool_Local
Ecole primaire Nyamwaka,-3.5991667,26.6719444,,School,DRC_All_SCHool_Local
Ecole secondaire Kampala,-2.8174306,27.2159861,,School,DRC_All_SCHool_Local
Ecole secondaire Lubungu,-2.5669333,27.2615028,,School,DRC_All_SCHool_Local
Ecole secondaire Ita Moyo,-3.3360869,26.4578083,,School,DRC_All_SCHool_Local
Ecole secondaire ITM,-2.8538028,27.1893167,,School,DRC_All_SCHool_Local
Ecole primaire Musiwa,-3.6725611,26.5365167,,School,DRC_All_SCHool_Local
Ecole primaire Byangama,-2.5541489,27.6276363,,School,DRC_All_SCHool_Local
Ecole primaire Kiamoya,-2.9542389,26.1275806,,School,DRC_All_SCHool_Local
Ecole primaire Mombala,-3.7061859,26.3603117,,School,DRC_All_SCHool_Local
École primaire Mikonsi,-2.5886024,26.757149,,School,DRC_All_SCHool_Local
Ecole primaire Mulumba,-2.8243549,26.8763254,,School,DRC_All_SCHool_Local
Ecole secondaire Inst Mundenga,-3.0946056,26.9784194,,School,DRC_All_SCHool_Local
Ecole primaire Bikenge,-3.0047583,26.7562389,,School,DRC_All_SCHool_Local
Ecole primaire Tchabangwa,-2.7046917,26.2917694,,School,DRC_All_SCHool_Local
Ecole primaire Kisanga,-3.2204917,26.889925,,School,DRC_All_SCHool_Local
Ecole primaire I Mibake,-2.5861778,26.6176528,,School,DRC_All_SCHool_Local
Ecole primaire Kampungu,-3.2575083,27.034725,,School,DRC_All_SCHool_Local
Ecole secondaire Inst Kasese,-2.5699972,26.6231722,,School,DRC_All_SCHool_Local
École primaire Nkoba,-2.7368536,27.270991,,School,DRC_All_SCHool_Local
Ecole primaire Katambwe,-3.7686254,26.3994613,,School,DRC_All_SCHool_Local
École primaire Kibazonga,-2.6140111,27.303075,,School,DRC_All_SCHool_Local
Ecole primaire Lipango,-2.5912917,26.6439722,,School,DRC_All_SCHool_Local
Ecole primaire Mabikwa,-3.3890556,26.1787472,,School,DRC_All_SCHool_Local
Ecole secondaire Inst Kimbili,-2.5908111,26.6439167,,School,DRC_All_SCHool_Local
École primaire Mangulu,-2.7071835,27.3574004,,School,DRC_All_SCHool_Local
Ecole secondaire Kilembela,-2.4426859,27.3855605,,School,DRC_All_SCHool_Local
Ecole primaire Kihembwe,-3.4501556,26.4428111,,School,DRC_All_SCHool_Local
Ecole secondaire Inst Kema,-3.6484056,26.3665528,,School,DRC_All_SCHool_Local
Ecole primaire Sabiazo,-2.9941236,26.2056275,,School,DRC_All_SCHool_Local
Ecole primaire Maseke,-3.0951167,26.9778944,,School,DRC_All_SCHool_Local
Ecole primaire Mapimo,-2.2692778,27.1302028,,School,DRC_All_SCHool_Local
Ecole secondaire Inst Lubile,-2.7459167,26.9191111,,School,DRC_All_SCHool_Local
Ecole secondaire Inst Alimasi,-2.6463806,26.4071333,,School,DRC_All_SCHool_Local
École primaire Munkiti,-3.2178167,27.0307194,,School,DRC_All_SCHool_Local
École primaire (katumpi) Kauku,-3.5083333,26.235,,School,DRC_All_SCHool_Local
Ecole primaire Lubile,-2.7460817,26.9216679,,School,DRC_All_SCHool_Local
Ecole primaire Muloba,-3.1870222,26.7570722,,School,DRC_All_SCHool_Local
Ecole primaire Kangali,-3.5429472,26.8674639,,School,DRC_All_SCHool_Local
Ecole secondaire Inst Kabamba,-2.5990389,26.6456944,,School,DRC_All_SCHool_Local
Ecole primaire Kakola,-3.1100833,26.272575,,School,DRC_All_SCHool_Local
Ecole secondaire Inst Dikisa,-3.5856306,26.6831528,,School,DRC_All_SCHool_Local
Ecole primaire Kyelu,-3.3094861,27.0148028,,School,DRC_All_SCHool_Local
Ecole primaire Butezi,-2.5767278,26.7483667,,School,DRC_All_SCHool_Local
Ecole primaire Bangoma,-2.8693333,27.1843472,,School,DRC_All_SCHool_Local
Ecole primaire Matabisi,-3.5849056,26.6834222,,School,DRC_All_SCHool_Local
Ecole secondaire Inst Neema,-2.8672222,27.1846194,,School,DRC_All_SCHool_Local
Ecole primaire Ikunza,-2.5696083,27.2643056,,School,DRC_All_SCHool_Local
Ecole primaire Inst Chem Chem,-2.5564722,26.6179222,,School,DRC_All_SCHool_Local
Ecole primaire Kayuyu,-3.6542,26.3647056,,School,DRC_All_SCHool_Local
Ecole primaire Mulungu,-2.8415561,27.2001874,,School,DRC_All_SCHool_Local
Ecole primaire Ngoma,-3.5833472,26.3248861,,School,DRC_All_SCHool_Local
Ecole primaire Lwigi / Kinzanza,-2.5550756,27.6362667,,School,DRC_All_SCHool_Local
Ecole secondaire Inst Tsholoba,-3.2121472,26.4855722,,School,DRC_All_SCHool_Local
Ecole primaire Mukpbya,-3.4392361,27.0590444,,School,DRC_All_SCHool_Local
Ecole secondaire Inst Munyele,-3.7057694,26.3618611,,School,DRC_All_SCHool_Local
Ecole primaire Mukwale,-2.5715472,26.6385778,,School,DRC_All_SCHool_Local
Ecole primaire Kibonge,-3.1889889,26.8474333,,School,DRC_All_SCHool_Local
Ecole primaire Asumani,-3.0291111,26.7586833,,School,DRC_All_SCHool_Local
Ecole secondaire Inst Juwa,-2.647375,26.4700778,,School,DRC_All_SCHool_Local
Ecole secondaire Inst Kisanga Ii,-3.0779944,27.0015639,,School,DRC_All_SCHool_Local
Ecole secondaire ITM,-2.5674083,26.6178139,,School,DRC_All_SCHool_Local
Ecole secondaire Inst Kimwingule,-3.3107,27.0147778,,School,DRC_All_SCHool_Local
École primaire Baselele,-2.6137361,26.7844111,,School,DRC_All_SCHool_Local
École primaire Lwampongo,-2.8693361,27.1825667,,School,DRC_All_SCHool_Local
École primaire Islamique,-3.8029868,26.4613296,,School,DRC_All_SCHool_Local
Ecole secondaire Itpdmk,-2.5934833,26.6505472,,School,DRC_All_SCHool_Local
Ecole primaire Kakutya,-2.5920278,26.6489306,,School,DRC_All_SCHool_Local
Ecole primaire Tuntungulu,-2.7615198,27.2461073,,School,DRC_All_SCHool_Local
École primaire Kisongo,-2.5355722,27.2064139,,School,DRC_All_SCHool_Local
École primaire Musongela,-3.6536028,26.24305,,School,DRC_All_SCHool_Local
Ecole primaire Kalamundo,-2.8618689,27.0918816,,School,DRC_All_SCHool_Local
Ecole primaire Kiminanya,-3.4768556,26.2394139,,School,DRC_All_SCHool_Local
Ecole primaire Inst Keigo,-3.0985806,26.4594667,,School,DRC_All_SCHool_Local
Ecole primaire Amini,-2.5886944,26.6421694,,School,DRC_All_SCHool_Local
École primaire Kamwami,-3.1578197,26.7106957,,School,DRC_All_SCHool_Local
École primaire Kibazonga,-2.6079694,27.3021778,,School,DRC_All_SCHool_Local
Ecole primaire Kayeye,-2.8842444,26.8083361,,School,DRC_All_SCHool_Local
Ecole primaire Mumbuza,-2.761225,26.2156917,,School,DRC_All_SCHool_Local
Ecole primaire Lukelwa II,-3.0983,26.9699,,School,DRC_All_SCHool_Local
Ecole secondaire Inst Kihembwe,-3.4503361,26.4418917,,School,DRC_All_SCHool_Local
École primaire Minsie,-5.496,14.6854167,,School,DRC_All_SCHool_Local
Ecole primaire Sadisa,-5.3600278,13.2731111,,School,DRC_All_SCHool_Local
École primaire Gimbi,-5.4940556,13.2880556,,School,DRC_All_SCHool_Local
École primaire Ntuadisi,-5.5004167,14.6921944,,School,DRC_All_SCHool_Local
École primaire Boko,-5.4138889,14.9033333,,School,DRC_All_SCHool_Local
Ecole primaire Mavuma,-5.1998889,15.0805833,,School,DRC_All_SCHool_Local
École primaire Mwala Kinsende,-5.2802778,14.9695278,,School,DRC_All_SCHool_Local
Ecole primaire Seke Banza,-5.3388889,13.2843333,,School,DRC_All_SCHool_Local
École primaire Lovo,-5.1126165,14.9515025,,School,DRC_All_SCHool_Local
Ecole primaire Kilemba Kinti,-5.2049167,14.5095556,,School,DRC_All_SCHool_Local
Ecole primaire Mantuila,-5.57075,14.4317778,,School,DRC_All_SCHool_Local
Ecole primaire Nsumba,-5.1910278,14.9947222,,School,DRC_All_SCHool_Local
Ecole primaire Mvela,-5.4426389,14.856,,School,DRC_All_SCHool_Local
École primaire Mudekoko,-5.3374167,13.2746111,,School,DRC_All_SCHool_Local
École primaire Nkitudia,-5.1407222,15.0510556,,School,DRC_All_SCHool_Local
École primaire Nkenge,-5.4989722,14.6802222,,School,DRC_All_SCHool_Local
Ecole primaire Kuilu,-5.521,14.6846389,,School,DRC_All_SCHool_Local
École primaire Mansende,-5.2989722,15.1023333,,School,DRC_All_SCHool_Local
Ecole primaire Kifudi,-5.5581667,13.2661667,,School,DRC_All_SCHool_Local
École primaire Mema,-5.4943611,14.6863333,,School,DRC_All_SCHool_Local
Ecole primaire Minkondo,-5.8338333,13.0613611,,School,DRC_All_SCHool_Local
Ecole primaire Nkunda Masangu,-5.3468611,14.7403056,,School,DRC_All_SCHool_Local
Ecole primaire Lungisa,-5.4154167,14.9073611,,School,DRC_All_SCHool_Local
Ecole primaire Mbuka,-5.4505,14.6733889,,School,DRC_All_SCHool_Local
Ecole primaire Kisalu,-5.3389167,13.2748333,,School,DRC_All_SCHool_Local
Ecole primaire Zola,-5.2146111,13.3687778,,School,DRC_All_SCHool_Local
Ecole primaire Lukala Ngemba,-5.5103333,14.5116111,,School,DRC_All_SCHool_Local
École primaire Ngongolo,-5.1463333,15.0503611,,School,DRC_All_SCHool_Local
École primaire Vuvu,-5.8283056,13.0559722,,School,DRC_All_SCHool_Local
Ecole primaire Ngoma Nlemvo,-5.6095278,14.7185,,School,DRC_All_SCHool_Local
Ecole primaire Kukiele,-5.3404167,13.2797222,,School,DRC_All_SCHool_Local
Ecole primaire Sikama,-5.5000167,13.2956667,,School,DRC_All_SCHool_Local
École primaire Bangu Langa,-5.3195,14.9065,,School,DRC_All_SCHool_Local
Ecole primaire Kingemba,-5.5133611,14.6811389,,School,DRC_All_SCHool_Local
Ecole primaire Kinzau Mvuete,-5.4945333,13.2897222,,School,DRC_All_SCHool_Local
Ecole primaire Minsie,-5.5800278,14.6546111,,School,DRC_All_SCHool_Local
École primaire Mwala Nzonzo,-5.2631944,14.9739444,,School,DRC_All_SCHool_Local
Ecole primaire Kinsende,-5.4631667,14.6453056,,School,DRC_All_SCHool_Local
École primaire Kimfuzi,-5.4986111,13.2893333,,School,DRC_All_SCHool_Local
École primaire Lukunga,-4.3642222,15.2158611,,School,DRC_All_SCHool_Local
Ecole primaire Luozi,-4.3666312,15.2183701,,School,DRC_All_SCHool_Local
École primaire Bosalisani,-4.3685,15.2266944,,School,DRC_All_SCHool_Local
Ecole primaire Kuvuna,-4.3581111,15.2165556,,School,DRC_All_SCHool_Local
École primaire Mankala,-4.4626667,15.3466111,,School,DRC_All_SCHool_Local
École primaire Raisa,-4.3763611,15.2244444,,School,DRC_All_SCHool_Local
Ecole Primaire Kilambu,-4.4403651,15.3502998,,School,DRC_All_SCHool_Local
École primaire St Cyrille,-4.4471944,15.1853889,,School,DRC_All_SCHool_Local
Ecole primaire Bolingo,-4.38275,15.2350278,,School,DRC_All_SCHool_Local
Ecole primaire Lutendele Kimbangu,-4.3759167,15.1935833,,School,DRC_All_SCHool_Local
Ecole primaire Matanga Mushima,-5.04203,18.15001,,School,DRC_All_SCHool_Local
Ecole secondaire Inst Ntosanziala,-4.67184,19.06752,,School,DRC_All_SCHool_Local
Ecole primaire Mbobe 1,-3.3103611,17.3600278,,School,DRC_All_SCHool_Local
Ecole primaire Kanika,-2.3961111,17.5828333,,School,DRC_All_SCHool_Local
École primaire Cuebs Mpene,-4.488031,18.8301061,,School,DRC_All_SCHool_Local
Ecole primaire Ito,-2.3656944,17.5129722,,School,DRC_All_SCHool_Local
Ecole primaire Mbeko,-4.7560231,17.7598928,,School,DRC_All_SCHool_Local
Ecole primaire Kinangulu,-4.71338,18.03509,,School,DRC_All_SCHool_Local
Ecole secondaire Inst Balaka,-4.54323,19.00834,,School,DRC_All_SCHool_Local
Ecole primaire Nioki,-2.7133889,17.6808056,,School,DRC_All_SCHool_Local
Ecole primaire Masamuna,-4.8045241,17.6068977,,School,DRC_All_SCHool_Local
École primaire Menkao,-4.1809331,15.6905367,,School,DRC_All_SCHool_Local
École primaire Kitsinga,-4.9065923,17.0189906,,School,DRC_All_SCHool_Local
Ecole primaire Loso,-4.41745,18.90804,,School,DRC_All_SCHool_Local
Ecole primaire Yengi,-4.7677673,17.4736349,,School,DRC_All_SCHool_Local
Ecole primaire Kimbulu,-4.4293889,18.4238611,,School,DRC_All_SCHool_Local
École primaire Nsadisa Mushie Pentane,-3.4231944,17.6128611,,School,DRC_All_SCHool_Local
École primaire Kindongolosi,-4.7343865,16.8538494,,School,DRC_All_SCHool_Local
Ecole secondaire Inst Tabasenge,-4.53388,18.94088,,School,DRC_All_SCHool_Local
Ecole secondaire Inst Ngemba,-5.14614,18.05089,,School,DRC_All_SCHool_Local
Ecole primaire Kiwawa,-4.7484534,17.7153143,,School,DRC_All_SCHool_Local
École primaire Dr Bloum,-4.5980833,18.4057778,,School,DRC_All_SCHool_Local
,-4.4485326,16.1984157,,School,DRC_All_SCHool_Local
Ecole primaire Kasombo,-4.7837197,17.1326673,,School,DRC_All_SCHool_Local
Ecole Nkufi Kilanga,-3.2969573,17.3737355,,School,DRC_All_SCHool_Local
École primaire Kimbumbidi,-4.4182272,18.4089428,,School,DRC_All_SCHool_Local
École primaire Kimputu,-4.68371,18.03027,,School,DRC_All_SCHool_Local
Ecole primaire Mabala,-2.7241111,17.6841389,,School,DRC_All_SCHool_Local
Ecole secondaire Inst Samy Mwaba,-4.7695756,17.4751634,,School,DRC_All_SCHool_Local
Ecole primaire Mere Yves,-4.4216389,18.4201111,,School,DRC_All_SCHool_Local
École primaire Lufimi,-4.5412695,16.3151536,,School,DRC_All_SCHool_Local
Ecole primaire Pont Wamba,-4.7574195,16.9604117,,School,DRC_All_SCHool_Local
École primaire Mpango,-4.58121,19.18773,,School,DRC_All_SCHool_Local
Ecole primaire Mpumpe,-2.6345278,17.729,,School,DRC_All_SCHool_Local
École primaire III Kumbi,-4.6988,18.15224,,School,DRC_All_SCHool_Local
Ecole primaire Monkana,-3.4369722,17.2611111,,School,DRC_All_SCHool_Local
École secondaire Ecole Technique Profesionnelle Bukanga-lonzo,-4.706294,16.7911651,,School,DRC_All_SCHool_Local
Ecole primaire Bienzi,-4.61569,18.99946,,School,DRC_All_SCHool_Local
Ecole secondaire Inst Luliba,-3.4596889,27.1900972,,School,DRC_All_SCHool_Local
Ecole secondaire Inst Tchelo,-3.246275,26.5984028,,School,DRC_All_SCHool_Local
École primaire Kalomba,-3.4216194,27.2167611,,School,DRC_All_SCHool_Local
Ecole secondaire Inst Kananga,-3.4628028,27.1908944,,School,DRC_All_SCHool_Local
Ecole secondaire Inst Imara,-3.5649861,27.3284861,,School,DRC_All_SCHool_Local
Ecole primaire Idumbo,-3.3034861,27.2016833,,School,DRC_All_SCHool_Local
Ecole primaire Kazombo,-3.5650222,27.3292944,,School,DRC_All_SCHool_Local
Ecole secondaire Inst Penekusu II,-3.4644028,27.1908083,,School,DRC_All_SCHool_Local
Ecole secondaire Inst Binkutu,-3.5252056,27.2350222,,School,DRC_All_SCHool_Local
Ecole secondaire Inst Kanyombo,-3.6048222,27.3848222,,School,DRC_All_SCHool_Local
Ecole secondaire Inst Penekusu,-3.4623444,27.1877694,,School,DRC_All_SCHool_Local
Centre d'alphabetistion Ema Penekusu,-3.4605639,27.1889972,,School,DRC_All_SCHool_Local
Ecole primaire Kakumbu,-3.5676361,27.3437556,,School,DRC_All_SCHool_Local
Ecole primaire Mikaba II,-3.6093778,27.3934833,,School,DRC_All_SCHool_Local
Ecole secondaire Inst Lulenge,-3.5539944,27.2801694,,School,DRC_All_SCHool_Local
École primaire Mikabu,-3.5548556,27.2793861,,School,DRC_All_SCHool_Local
Ecole secondaire Inst De Mulamba,-3.1714924,26.6408015,,School,DRC_All_SCHool_Local
Ecole primaire Mikaba I,-3.6094028,27.3935333,,School,DRC_All_SCHool_Local
École primaire Kyabumwa,-3.1718333,26.6348028,,School,DRC_All_SCHool_Local
École primaire Kalole,-3.6752474,27.3742005,,School,DRC_All_SCHool_Local
Ecole secondaire Inst Lulenge,-3.5971389,27.3746139,,School,DRC_All_SCHool_Local
École primaire Faraja,-3.5681778,27.3401556,,School,DRC_All_SCHool_Local
Ecole secondaire Inst De Pangi,-3.1716389,26.6318667,,School,DRC_All_SCHool_Local
École primaire Kisongo,-3.6438537,27.3985243,,School,DRC_All_SCHool_Local
Ecole secondaire Inst Beigala,-3.0723028,27.2054944,,School,DRC_All_SCHool_Local
École primaire Nepanepa,-3.5976972,27.3748028,,School,DRC_All_SCHool_Local
Ecole secondaire Lycée St Monique,-3.6114472,27.3960056,,School,DRC_All_SCHool_Local
École primaire Tchelo,-3.2237361,26.6020194,,School,DRC_All_SCHool_Local
Ecole secondaire Inst Mubake,-3.6753835,27.3733366,,School,DRC_All_SCHool_Local
Ecole primaire Walubazia / Makamba,-3.7207389,27.3333194,,School,DRC_All_SCHool_Local
Ecole primaire Misanya,-3.6532556,27.3917528,,School,DRC_All_SCHool_Local
Ecole primaire Binkutu,-3.5271769,27.2371707,,School,DRC_All_SCHool_Local
Ecole primaire Lubi,-3.0733972,27.2072389,,School,DRC_All_SCHool_Local
Ecole primaire Kalole 5e Celpa,-3.6904477,27.3708194,,School,DRC_All_SCHool_Local
Ecole secondaire Inst Nyota,-3.6526861,27.3960222,,School,DRC_All_SCHool_Local
Ecole secondaire Inst Kalole,-3.6532333,27.390725,,School,DRC_All_SCHool_Local
Ecole primaire Kingombe,-3.2118639,26.6111861,,School,DRC_All_SCHool_Local
Ecole primaire Mwangaza,-3.3979556,27.2143139,,School,DRC_All_SCHool_Local
Ecole secondaire Inst Kibazonga,-3.1268093,27.193131,,School,DRC_All_SCHool_Local
Ecole primaire Kinuilo,-3.65735,27.3927083,,School,DRC_All_SCHool_Local
Ecole primaire Wabienga,-3.073065,27.2058469,,School,DRC_All_SCHool_Local
Ecole primaire Bitobolo,-3.0479556,27.1965444,,School,DRC_All_SCHool_Local
Ecole primaire Mugele,-3.2781259,26.551973,,School,DRC_All_SCHool_Local
Ecole primaire Milanga,-3.1275273,27.192458,,School,DRC_All_SCHool_Local
Ecole secondaire Inst Kikamba,-3.2305528,27.1841389,,School,DRC_All_SCHool_Local
Ecole primaire Kikamba,-3.2292139,27.1836361,,School,DRC_All_SCHool_Local
Ecole primaire Misanya,-3.6531361,27.3917861,,School,DRC_All_SCHool_Local
Ecole primaire Kinsembe,-3.1277798,26.5263601,,School,DRC_All_SCHool_Local
Ecole primaire Ikungu,-3.2782444,27.1982194,,School,DRC_All_SCHool_Local
Ecole primaire Nyalukungu,-3.4295528,27.2139472,,School,DRC_All_SCHool_Local
Ecole secondaire Inst Tech. Médical,-3.673564,27.3769283,,School,DRC_All_SCHool_Local
Ecole primaire Kyabila,-3.2268222,27.1831528,,School,DRC_All_SCHool_Local
Ecole secondaire Inst Ufaamu,-3.3852139,27.2078083,,School,DRC_All_SCHool_Local
Ecole primaire Ndima,-3.4571222,27.1860444,,School,DRC_All_SCHool_Local
Ecole primaire Babibu II,-3.38595,27.2073111,,School,DRC_All_SCHool_Local
Ecole primaire Kalola/kigogo,-3.2465139,27.1918139,,School,DRC_All_SCHool_Local
Ecole secondaire Inst Lwatamba,-3.3215778,27.2084417,,School,DRC_All_SCHool_Local
Ecole primaire Penekusu,-3.4607361,27.1895278,,School,DRC_All_SCHool_Local
Ecole secondaire Inst Kibanda,-3.5261972,27.2353056,,School,DRC_All_SCHool_Local
Ecole secondaire Inst Beigala,-3.2485028,27.1911194,,School,DRC_All_SCHool_Local
Ecole secondaire Inst Mulumba,-3.4236833,27.2161806,,School,DRC_All_SCHool_Local
Ecole primaire Idumbu,-3.3216639,27.2101972,,School,DRC_All_SCHool_Local
Ecole primaire Kabimbi,-3.1745306,26.62946,,School,DRC_All_SCHool_Local
Ecole secondaire Inst Wakabango I,-3.5677722,27.3443778,,School,DRC_All_SCHool_Local
Ecole primaire Kalindula,-3.1404968,26.6016908,,School,DRC_All_SCHool_Local
École primaire Inst Nyalukungu,-3.4268194,27.2125278,,School,DRC_All_SCHool_Local
Ecole primaire Lugushwa,-3.3851667,27.8708972,,School,DRC_All_SCHool_Local
École primaire Luhuku,-2.8427945,28.7001438,,School,DRC_All_SCHool_Local
Ecole secondaire Inst Lubashi,-3.2518028,28.1922528,,School,DRC_All_SCHool_Local
Ecole primaire Kalambi,-2.9742052,28.4805779,,School,DRC_All_SCHool_Local
Ecole primaire Mulwa,-2.5266621,28.8299278,,School,DRC_All_SCHool_Local
École primaire Luliba,-3.077775,28.1745528,,School,DRC_All_SCHool_Local
École primaire Inst Birema,-2.8364889,28.6905111,,School,DRC_All_SCHool_Local
Ecole primaire Camp Mweze,-2.5100556,28.8450556,,School,DRC_All_SCHool_Local
,-3.213575,28.1570361,,School,DRC_All_SCHool_Local
Ecole primaire Kibukila,-3.0683972,28.1823139,,School,DRC_All_SCHool_Local
École primaire Buhogo,-2.8909881,28.6070784,,School,DRC_All_SCHool_Local
École primaire Bugobe,-2.8381722,28.6832639,,School,DRC_All_SCHool_Local
Ecole secondaire Inst Munimba,-3.3503361,27.8213528,,School,DRC_All_SCHool_Local
Ecole primaire Kabilongo,-3.2190111,28.1490944,,School,DRC_All_SCHool_Local
Ecole secondaire Inst Kakwende,-2.8399394,28.6738045,,School,DRC_All_SCHool_Local
Ecole primaire Kabisa,-3.2821167,28.1150333,,School,DRC_All_SCHool_Local
Ecole primaire Suke,-3.0677972,28.1873472,,School,DRC_All_SCHool_Local
Centre d'alphabetistion Locale,-3.2579944,28.1141333,,School,DRC_All_SCHool_Local
École primaire Tchona,-3.3527972,28.0913444,,School,DRC_All_SCHool_Local
Ecole primaire 8éme Cepac,-3.3485056,28.0207417,,School,DRC_All_SCHool_Local
École primaire Cibanda Celpa,-2.826249,28.7262788,,School,DRC_All_SCHool_Local
École primaire Kitembo,-3.0623278,28.1882917,,School,DRC_All_SCHool_Local
École primaire Inst Birema,-2.8352306,28.6909444,,School,DRC_All_SCHool_Local
Ecole primaire Kobokobo,-3.0422778,28.2581972,,School,DRC_All_SCHool_Local
Ecole primaire Ciriri,-2.8595639,28.6653056,,School,DRC_All_SCHool_Local
Ecole primaire Kabukungu,-3.0716667,28.1841611,,School,DRC_All_SCHool_Local
Ecole primaire Kamagega,-2.7975787,28.7224222,,School,DRC_All_SCHool_Local
Ecole primaire Nyanja,-2.5257778,28.8571111,,School,DRC_All_SCHool_Local
Ecole primaire Mubeza Officielle,-2.9330782,28.5314699,,School,DRC_All_SCHool_Local
Ecole secondaire Inst Bigombe,-3.0632472,28.1869694,,School,DRC_All_SCHool_Local
Ecole secondaire Inst Lubiola,-3.1940306,28.179225,,School,DRC_All_SCHool_Local
École primaire Buhamba,-2.8816694,28.7591889,,School,DRC_All_SCHool_Local
Ecole secondaire Inst Kakuku,-3.2842833,28.1074667,,School,DRC_All_SCHool_Local
Ecole secondaire Inst Ita Lubigi,-3.1882,28.1827639,,School,DRC_All_SCHool_Local
Ecole secondaire Inst Mulama,-2.8450639,28.7848694,,School,DRC_All_SCHool_Local
Ecole secondaire Inst Kamala,-3.2537222,28.1220389,,School,DRC_All_SCHool_Local
École primaire Kizikibi,-3.0651722,28.2408528,,School,DRC_All_SCHool_Local
Ecole primaire Mbeleke,-3.2788194,28.1232222,,School,DRC_All_SCHool_Local
Ecole primaire Nikumbu,-3.3550278,28.0890528,,School,DRC_All_SCHool_Local
Ecole secondaire Inst Byonga,-3.3418611,28.1305056,,School,DRC_All_SCHool_Local
Ecole primaire Ruvungi,-2.815475,28.6950722,,School,DRC_All_SCHool_Local
Ecole primaire Twabenga,-3.2763306,28.1176472,,School,DRC_All_SCHool_Local
Ecole secondaire Inst Miki,-2.92325,28.5206611,,School,DRC_All_SCHool_Local
École primaire Kaboge,-3.2038917,28.1651444,,School,DRC_All_SCHool_Local
Ecole primaire Kashanja,-2.84465,28.7851806,,School,DRC_All_SCHool_Local
Ecole secondaire ITM Kamituga,-3.0711472,28.1845583,,School,DRC_All_SCHool_Local
Ecole primaire Bwishasha,-2.8417472,28.68955,,School,DRC_All_SCHool_Local
Ecole primaire Ntwali,-2.5122393,28.8478166,,School,DRC_All_SCHool_Local
Ecole primaire Ubuye,-3.0744694,28.1864056,,School,DRC_All_SCHool_Local
Ecole primaire Makito,-3.1837861,28.1867361,,School,DRC_All_SCHool_Local
Ecole primaire Lubanza 5éme Celpa,-2.8388361,28.7565111,,School,DRC_All_SCHool_Local
École primaire Izirangabo,-2.6411944,28.6576389,,School,DRC_All_SCHool_Local
Ecole secondaire Kimalanjala,-2.8838292,28.5746807,,School,DRC_All_SCHool_Local
Ecole secondaire Inst Amani,-3.2459444,28.0494667,,School,DRC_All_SCHool_Local
École primaire Mikuba,-3.0520444,28.2052278,,School,DRC_All_SCHool_Local
Ecole primaire Idudwe,-2.8165556,28.7446694,,School,DRC_All_SCHool_Local
Ecole primaire Byonga,-3.3434722,28.1297556,,School,DRC_All_SCHool_Local
Ecole primaire Kibe,-3.1704194,28.1855306,,School,DRC_All_SCHool_Local
Ecole primaire Complexe Kitemba,-3.3914694,27.8673528,,School,DRC_All_SCHool_Local
École primaire Kenene,-3.3768389,28.0445222,,School,DRC_All_SCHool_Local
Ecole primaire Kitutu,-3.2777417,28.1196889,,School,DRC_All_SCHool_Local
Ecole primaire Tchatela,-3.4076028,28.0141917,,School,DRC_All_SCHool_Local
Ecole primaire Kashadu,-2.8738028,28.6959778,,School,DRC_All_SCHool_Local
Ecole primaire Mero / Tshanda,-3.0649722,28.1778972,,School,DRC_All_SCHool_Local
Ecole secondaire Inst Itudu,-2.88005,28.6449028,,School,DRC_All_SCHool_Local
École primaire Manga,-3.1075917,28.2595222,,School,DRC_All_SCHool_Local
Ecole secondaire Inst Ludaha,-2.8014056,28.7138528,,School,DRC_All_SCHool_Local
Ecole primaire Nyakaliba,-2.5183889,28.8458611,,School,DRC_All_SCHool_Local
Ecole secondaire ITM Lubigi,-3.1883861,28.1831083,,School,DRC_All_SCHool_Local
École Primaire Hodari,-2.5193611,28.8561667,,School,DRC_All_SCHool_Local
,-2.8909239,28.6068657,,School,DRC_All_SCHool_Local
École primaire Kasaga,-3.1178899,28.2344254,,School,DRC_All_SCHool_Local
Ecole primaire Budali,-2.8399722,28.7910833,,School,DRC_All_SCHool_Local
Ecole primaire Kalulu,-2.8559194,28.7725139,,School,DRC_All_SCHool_Local
Ecole secondaire Inst Elila,-3.2795,28.1184639,,School,DRC_All_SCHool_Local
Ecole primaire Inst Elitra,-3.2289444,28.2487306,,School,DRC_All_SCHool_Local
École primaire Kindi,-3.3992145,27.8536667,,School,DRC_All_SCHool_Local
Ecole primaire Iyanda,-3.0468306,28.2033861,,School,DRC_All_SCHool_Local
Ecole primaire Kabilongo 2,-3.3999111,28.0216694,,School,DRC_All_SCHool_Local
École primaire Icophin,-3.2785333,28.1147306,,School,DRC_All_SCHool_Local
Ecole secondaire Inst Kilima,-3.2970166,28.1088572,,School,DRC_All_SCHool_Local
Ecole secondaire Inst Kazuza,-3.3638972,28.0622694,,School,DRC_All_SCHool_Local
Ecole primaire Cirhembo,-2.8113861,28.7472694,,School,DRC_All_SCHool_Local
École primaire Butwa,-3.060152,28.1809166,,School,DRC_All_SCHool_Local
École primaire Lungwe,-2.8482111,28.6950306,,School,DRC_All_SCHool_Local
Ecole secondaire Inst Musendo,-3.0723417,28.1806361,,School,DRC_All_SCHool_Local
École primaire Cibugi,-2.8320727,28.6824647,,School,DRC_All_SCHool_Local
Ecole primaire Canya,-2.4701111,28.7752222,,School,DRC_All_SCHool_Local
Ecole primaire Tima,-3.0585806,28.1921833,,School,DRC_All_SCHool_Local
Ecole primaire Ludaha,-2.8001611,28.7155528,,School,DRC_All_SCHool_Local
Ecole secondaire Burhale,-2.7049161,28.6422174,,School,DRC_All_SCHool_Local
Ecole secondaire Inst Longangi,-3.1695948,28.1926091,,School,DRC_All_SCHool_Local
Ecole primaire Lwarhamba,-2.8587444,28.7570667,,School,DRC_All_SCHool_Local
École primaire Elimu,-2.5210833,28.8588333,,School,DRC_All_SCHool_Local
Ecole primaire Makala Catholique,-2.8333611,28.7623583,,School,DRC_All_SCHool_Local
Ecole primaire Kito,-3.0516583,28.20215,,School,DRC_All_SCHool_Local
École primaire Kamala 1,-3.2754806,28.1241361,,School,DRC_All_SCHool_Local
Ecole secondaire Kakuku,-3.1938944,28.1802028,,School,DRC_All_SCHool_Local
Ecole primaire Igira,-2.8089167,28.7251556,,School,DRC_All_SCHool_Local
Ecole primaire Kitumba,-3.2711361,28.1237944,,School,DRC_All_SCHool_Local
Ecole primaire Mungombe,-3.0674944,28.2412056,,School,DRC_All_SCHool_Local
Ecole primaire Amka,-3.3170482,27.9874396,,School,DRC_All_SCHool_Local
Ecole primaire Byombi,-3.4528556,27.9662028,,School,DRC_All_SCHool_Local
,-3.329925,28.1208972,,School,DRC_All_SCHool_Local
Ecole primaire Mapale,-3.3817667,27.8719778,,School,DRC_All_SCHool_Local
Ecole primaire Kantale,-3.0469694,28.1995333,,School,DRC_All_SCHool_Local
École primaire Karundu,-2.8425861,28.7675472,,School,DRC_All_SCHool_Local
Ecole secondaire Inst Katunga,-3.0565472,28.1919306,,School,DRC_All_SCHool_Local
Ecole primaire Alfajiri,-3.0253583,28.4436417,,School,DRC_All_SCHool_Local
Ecole primaire Kanyambulende,-2.6162222,28.6857222,,School,DRC_All_SCHool_Local
Ecole secondaire Inst Kamituga,-3.0564694,28.1898,,School,DRC_All_SCHool_Local
Ecole primaire Mulambi,-2.8386509,28.6877588,,School,DRC_All_SCHool_Local
,-2.7089361,28.6394639,,School,DRC_All_SCHool_Local
Ecole primaire Mwenda,-2.8497132,28.6309097,,School,DRC_All_SCHool_Local
Ecole primaire Kalingi Tekete,-3.0474861,28.1977639,,School,DRC_All_SCHool_Local
Ecole secondaire Inst Bilembo,-3.0549028,28.1908583,,School,DRC_All_SCHool_Local
Ecole primaire Muhuza,-2.8222119,28.7041575,,School,DRC_All_SCHool_Local
Ecole primaire Chipanda,-2.8615235,28.6051702,,School,DRC_All_SCHool_Local
,-3.2973444,27.9973139,,School,DRC_All_SCHool_Local
Ecole secondaire Inst Mango,-3.1071139,28.2667111,,School,DRC_All_SCHool_Local
Ecole primaire Babongolo,-3.3502139,27.8216167,,School,DRC_All_SCHool_Local
Ecole secondaire Inst Mitobo,-3.2251278,28.134975,,School,DRC_All_SCHool_Local
Ecole secondaire Inst Umoja,-3.3805722,28.0431167,,School,DRC_All_SCHool_Local
Ecole secondaire Inst Mikuba,-3.3109,28.0949556,,School,DRC_All_SCHool_Local
École primaire Ktibya,-3.3402556,28.1260806,,School,DRC_All_SCHool_Local
Ecole primaire Tukenga,-3.3222361,28.0846139,,School,DRC_All_SCHool_Local
Ecole primaire Mazozo 8é Cepac,-3.1196667,28.1850611,,School,DRC_All_SCHool_Local
Ecole primaire Butetegele,-3.4350444,27.99565,,School,DRC_All_SCHool_Local
Ecole primaire Witangila,-2.8790069,28.5794448,,School,DRC_All_SCHool_Local
Ecole secondaire Ins. Sanganyi,-3.0519528,28.2009028,,School,DRC_All_SCHool_Local
Ecole secondaire Inst Nirinja,-2.9266861,28.6992444,,School,DRC_All_SCHool_Local
Ecole primaire Cihanda,-2.6704444,28.8624444,,School,DRC_All_SCHool_Local
École primaire Lugundu,-3.0466806,28.2006056,,School,DRC_All_SCHool_Local
Ecole primaire Iganda,-2.9713861,28.4505139,,School,DRC_All_SCHool_Local
École Primaire Nidunga,-2.5170556,28.8553333,,School,DRC_All_SCHool_Local
Ecole primaire Kabumba,-3.1264083,28.2295639,,School,DRC_All_SCHool_Local
Ecole primaire Bitanga,-3.0580889,28.186875,,School,DRC_All_SCHool_Local
Ecole secondaire Inst Lubanda,-2.8273555,28.6989892,,School,DRC_All_SCHool_Local
École primaire Ulindi,-2.5117049,28.8482021,,School,DRC_All_SCHool_Local
Ecole secondaire Inst Buhamba,-2.8823111,28.7594806,,School,DRC_All_SCHool_Local
École primaire Sugulu,-3.2114722,28.1610056,,School,DRC_All_SCHool_Local
Ecole secondaire Inst Kakemenge,-3.3346611,27.9794583,,School,DRC_All_SCHool_Local
Ecole secondaire Itav Kalenga 1er,-3.0655694,28.2406806,,School,DRC_All_SCHool_Local
Ecole primaire Bisenge,-2.9720542,28.4809711,,School,DRC_All_SCHool_Local
École primaire Butetegele,-3.2450111,28.0497806,,School,DRC_All_SCHool_Local
École primaire Mango,-3.1080806,28.2705694,,School,DRC_All_SCHool_Local
Ecole secondaire Inst Elimu,-3.2881833,28.1165083,,School,DRC_All_SCHool_Local
Ecole primaire Musali,-3.2509111,28.1245222,,School,DRC_All_SCHool_Local
Ecole primaire Ndjili,-3.3065861,28.1009139,,School,DRC_All_SCHool_Local
Ecole primaire Musenga,-3.337425,27.99245,,School,DRC_All_SCHool_Local
Ecole primaire Bumbu,-3.0779583,28.1780361,,School,DRC_All_SCHool_Local
École primaire Beroya Celpa,-2.8443191,28.7317502,,School,DRC_All_SCHool_Local
École primaire Songa,-3.0526361,28.1978222,,School,DRC_All_SCHool_Local
École primaire Nirinja,-2.9267167,28.6992333,,School,DRC_All_SCHool_Local
Ecole primaire Kahuwa,-2.5189722,28.8490278,,School,DRC_All_SCHool_Local
Ecole primaire Isasa,-3.1015361,28.1846167,,School,DRC_All_SCHool_Local
Ecole primaire Chishali,-2.823567,28.7360461,,School,DRC_All_SCHool_Local
Ecole primaire Kidodobo,-2.5567364,28.7758119,,School,DRC_All_SCHool_Local
École primaire Kambulumbulu Kizogu,-3.2624833,28.2152556,,School,DRC_All_SCHool_Local
Ecole primaire Kakemenge / E.C.C,-3.3309972,27.975875,,School,DRC_All_SCHool_Local
Ecole primaire Tumaini,-3.0573806,28.1988028,,School,DRC_All_SCHool_Local
