name,latitude,longitude,location_name,type,source,distance_to_nearest_conflict_km,risk_status
Institute Georges Simenon,-4.3053231,15.3147319,,School,DRC_All_SCHool_Local,0.0,at-risk
Lycée catholique,2.7952524,24.7376833,,School,DRC_All_SCHool_Local,0.7156301203551263,at-risk
École Presbyterienne,-4.3772481,15.3351266,,School,DRC_All_SCHool_Local,2.214086992547101,at-risk
École Massemba,-4.3812127,15.3359821,,School,DRC_All_SCHool_Local,2.6595703594322155,at-risk
Ecole Maternelle Massamba,-4.3849285,15.3369215,,School,DRC_All_SCHool_Local,3.066198480016017,at-risk
École St-Louis,-4.3457112,15.293557,,School,DRC_All_SCHool_Local,0.0,at-risk
École officielle,-4.3475774,15.2929726,,School,DRC_All_SCHool_Local,0.0,at-risk
Institut Diangenda,-4.3531403,15.2903763,Kinshasa,School,DRC_All_SCHool_Local,0.0,at-risk
École officielle,-4.3605004,15.3014055,,School,DRC_All_SCHool_Local,0.0,at-risk
Ecole Technique ITIP Bumbu,-4.3621937,15.2881578,Saïo,School,DRC_All_SCHool_Local,0.8770194487816891,at-risk
École catholique Sainte Christine,-4.3890772,15.3126137,,School,DRC_All_SCHool_Local,3.138937638309173,at-risk
Institut Wabakulu,-4.347404,15.2321757,,School,DRC_All_SCHool_Local,4.508126957389783,at-risk
Centre Scolare Pingu II,-4.4298913,15.3716211,,School,DRC_All_SCHool_Local,0.5240565364374172,at-risk
École,-4.4316456,15.3672222,,School,DRC_All_SCHool_Local,1.0098261828021067,at-risk
École,-4.4319023,15.3678874,,School,DRC_All_SCHool_Local,0.9711067048871689,at-risk
Complexe scolaire Mère Theresa Tito,-4.4330361,15.3664712,,School,DRC_All_SCHool_Local,1.1722676239859626,at-risk
Complexe scolaire Bualu,-4.4351755,15.3663457,,School,DRC_All_SCHool_Local,1.3497993896746652,at-risk
École privé,-4.3669125,15.3198048,,School,DRC_All_SCHool_Local,0.6197006307025195,at-risk
Institut Kisantu,-4.4202186,15.3915973,,School,DRC_All_SCHool_Local,2.0113868799642023,at-risk
École Toco 2,-4.4197512,15.3904829,,School,DRC_All_SCHool_Local,1.9135980557458439,at-risk
École,-4.3685492,15.318766,,School,DRC_All_SCHool_Local,0.8189378969089605,at-risk
Collège Saint-Louis,-5.8878442,22.4486644,,School,DRC_All_SCHool_Local,1.7216951468048463,at-risk
Athénée,-5.8910786,22.4171816,,School,DRC_All_SCHool_Local,0.9936270082327675,at-risk
École ITP Passio,-4.4046477,15.4070665,,School,DRC_All_SCHool_Local,4.333169593905935,at-risk
Ecole Primaire Biyela,-4.4189146,15.3926001,,School,DRC_All_SCHool_Local,2.166081887353847,at-risk
Lycée Bankazi,-5.2516333,14.8625144,,School,DRC_All_SCHool_Local,0.8134949703156937,at-risk
École primaire Luzolo,-5.2557255,14.855603,,School,DRC_All_SCHool_Local,1.6884818804808677,at-risk
LycéE Kivuvu,-5.258717,14.8593796,,School,DRC_All_SCHool_Local,1.5119521309852406,at-risk
ITC BADIKA,-5.2551534,14.8640079,Mbanza-Ngungu,School,DRC_All_SCHool_Local,0.8666721882726184,at-risk
École primaire Kivuvu,-5.2572415,14.8588099,,School,DRC_All_SCHool_Local,1.459682404906681,at-risk
Collège Wando,3.5995384,28.5749679,,School,DRC_All_SCHool_Local,2.1156890925448395,at-risk
Ecole primaire Mapatano II,-11.6994167,27.4848056,,School,DRC_All_SCHool_Local,4.142754346542628,at-risk
Ecole primaire Matayarisho 3,-10.9740833,26.7079167,,School,DRC_All_SCHool_Local,2.890931896416662,at-risk
Ecole primaire Mumea,-10.9625556,26.7234444,,School,DRC_All_SCHool_Local,2.3560185094103936,at-risk
École primaire Mapatano I,-11.6996667,27.4852778,,School,DRC_All_SCHool_Local,4.191826222366375,at-risk
Ecole primaire Matendo I,-10.9826944,26.7688056,,School,DRC_All_SCHool_Local,3.8748593300351595,at-risk
Ecole primaire Kamalondo III,-11.6846667,27.4865,,School,DRC_All_SCHool_Local,2.944520271083935,at-risk
Ecole primaire Ciboko,-11.7110833,27.4548889,,School,DRC_All_SCHool_Local,5.102668841220602,at-risk
Ecole primaire Mwanzo,-10.9863889,26.7937778,,School,DRC_All_SCHool_Local,6.621410779004227,at-risk
École primaire Nuru,-10.9605278,26.7325833,,School,DRC_All_SCHool_Local,2.321102829372829,at-risk
École primaire Vumilia,-10.9871389,26.7807778,,School,DRC_All_SCHool_Local,5.218285530689621,at-risk
École primaire Maua,-11.70625,27.4837222,,School,DRC_All_SCHool_Local,4.777189834850243,at-risk
Ecole primaire Daima,-11.697,27.4754722,,School,DRC_All_SCHool_Local,3.50651025448352,at-risk
Ecole primaire Nuru Ya Lwanga,-10.9816111,26.7069722,,School,DRC_All_SCHool_Local,2.8776194718793424,at-risk
Ecole primaire Amani,-11.7061389,27.4835833,,School,DRC_All_SCHool_Local,4.759936903494074,at-risk
École primaire Mampala,-11.6958665,27.4756719,,School,DRC_All_SCHool_Local,3.391673073461968,at-risk
Ecole primaire Tupendane,-10.9699722,26.72675,,School,DRC_All_SCHool_Local,1.458766908803523,at-risk
École primaire Mangi,-10.8020556,25.4793333,,School,DRC_All_SCHool_Local,9.595069940183665,at-risk
Ecole primaire Bahati II,-10.983238,26.7677504,,School,DRC_All_SCHool_Local,3.7625735068707264,at-risk
Ecole primaire Kamalondo I,-11.6805278,27.4854444,,School,DRC_All_SCHool_Local,2.560569540256522,at-risk
Ecole primaire Mapinduzi I,-11.6917732,27.479245,,School,DRC_All_SCHool_Local,3.1095721749256566,at-risk
École primaire St Bartelemy,-10.9691111,26.7118889,,School,DRC_All_SCHool_Local,2.709892116196314,at-risk
Ecole primaire Kamalondo II,-11.6798889,27.4853056,,School,DRC_All_SCHool_Local,2.5061925771531524,at-risk
Ecole primaire Kilubula,-10.9882222,26.7750556,,School,DRC_All_SCHool_Local,4.617284827361169,at-risk
Ecole primaire Mapinduzi II,-11.6915556,27.4794444,,School,DRC_All_SCHool_Local,3.0975605795918018,at-risk
Ecole primaire Nyota,-10.9740833,26.7103611,,School,DRC_All_SCHool_Local,2.635918701447098,at-risk
Ecole primaire Mapenzi,-11.7110833,27.4555,,School,DRC_All_SCHool_Local,5.086351940802256,at-risk
École primaire Tuelimishe,-11.6903611,27.4818611,,School,DRC_All_SCHool_Local,3.111097707824585,at-risk
Ecole primaire Kisima,-11.7016111,27.4505833,,School,DRC_All_SCHool_Local,4.262068473589719,at-risk
Ecole primaire Shindama,-10.9817778,26.7030556,,School,DRC_All_SCHool_Local,3.305326693437535,at-risk
École primaire Ubupalo,-11.6888889,27.4882222,,School,DRC_All_SCHool_Local,3.4080914651072565,at-risk
Ecole primaire Vangu I,-11.6754167,27.4943056,,School,DRC_All_SCHool_Local,3.1630790167076537,at-risk
Ecole primaire Bahati I,-10.9734167,26.711,,School,DRC_All_SCHool_Local,2.5940493689838244,at-risk
Ecole primaire Masikilizano,-11.6819722,27.4838889,,School,DRC_All_SCHool_Local,2.5324604615035433,at-risk
Ecole primaire Ushujaa II,-11.7007095,27.4795042,,School,DRC_All_SCHool_Local,4.035207608497602,at-risk
École primaire Kikwanda,-11.6238056,27.6410278,,School,DRC_All_SCHool_Local,6.2062662089196055,at-risk
Ecole primaire Vangu II,-11.7000145,27.4791508,,School,DRC_All_SCHool_Local,3.9493930687441523,at-risk
Ecole primaire Huruma,-10.9572778,26.727,,School,DRC_All_SCHool_Local,2.768741772717966,at-risk
Ecole primaire Kisaho,-11.7131389,27.4555,,School,DRC_All_SCHool_Local,5.308576717731788,at-risk
Ecole primaire Bilima,-10.9828056,26.7301944,,School,DRC_All_SCHool_Local,0.37708146812976545,at-risk
Ecole primaire Mavuno I,-10.9814722,26.7220556,,School,DRC_All_SCHool_Local,1.231062589102357,at-risk
Ecole primaire Kalubwe II,-11.6452778,27.4821944,,School,DRC_All_SCHool_Local,2.918219251305407,at-risk
École primaire Usamani,-11.0040556,26.7955,,School,DRC_All_SCHool_Local,7.238769934716721,at-risk
Ecole primaire Zamiri,-11.7038056,27.4875556,,School,DRC_All_SCHool_Local,4.714600137038922,at-risk
École primaire Nyota Ya Taifa,-11.6999167,27.4853889,,School,DRC_All_SCHool_Local,4.222009647775978,at-risk
EP Lisanga,0.0513948,18.2747803,,School,DRC_All_SCHool_Local,1.9229511267468482,at-risk
EP Nsongwatala,0.0105446,18.3166368,,School,DRC_All_SCHool_Local,8.355692699693146,at-risk
Ecole primaire Lolango,-0.0222222,18.2036111,,School,DRC_All_SCHool_Local,6.426456777059095,at-risk
EP2 Salongo,0.0311134,18.2752816,,School,DRC_All_SCHool_Local,4.067773880072844,at-risk
EP Bokombondji,0.045843,18.2654281,,School,DRC_All_SCHool_Local,2.319617447299772,at-risk
EP Ekofo,-0.0657524,18.169366,,School,DRC_All_SCHool_Local,0.31687792500625456,at-risk
Ecole primaire Papa Diangenda,0.0477778,18.2477778,,School,DRC_All_SCHool_Local,2.970389672041272,at-risk
Ecole primaire Maman Yanga,3.25725,19.7898611,,School,DRC_All_SCHool_Local,2.698157798227432,at-risk
École primaire Etoko,0.0102642,18.3274462,,School,DRC_All_SCHool_Local,9.220054432385062,at-risk
Ecole primaire Sembi,3.2409167,19.6926389,,School,DRC_All_SCHool_Local,8.280178893742201,at-risk
EP2 Mopepe,0.0344289,18.2505451,,School,DRC_All_SCHool_Local,4.007972569882088,at-risk
École primaire Nika,4.3482184,18.5932282,,School,DRC_All_SCHool_Local,0.7765169515180742,at-risk
Ecole primaire Bodigia,3.31875,19.8211389,,School,DRC_All_SCHool_Local,9.747179252222523,at-risk
Ecole primaire Ekof'ekema 1,0.0433333,18.2644444,,School,DRC_All_SCHool_Local,2.606332945611995,at-risk
Ecole primaire Eanga,-0.1255878,18.1370195,,School,DRC_All_SCHool_Local,7.334342155561062,at-risk
Ecole primaire Bayangene I,0.8763333,25.1919167,,School,DRC_All_SCHool_Local,6.435881982717878,at-risk
Ecole primaire Bayangene II,0.8794722,25.1928611,,School,DRC_All_SCHool_Local,6.071856919918095,at-risk
Institut Matanda,0.0947622,29.2848243,,School,DRC_All_SCHool_Local,2.1779878733166966,at-risk
École Primaire Mambingi,0.3674602,29.2729622,,School,DRC_All_SCHool_Local,5.025537822179989,at-risk
École primaire Kisuku / Limboro,0.1165883,29.3083216,,School,DRC_All_SCHool_Local,0.5678514943021341,at-risk
École Primaire La Vérité,0.1174933,29.3189876,,School,DRC_All_SCHool_Local,0.6435111025038585,at-risk
Ecole Secondaire Ngesse,0.1441,29.319333,,School,DRC_All_SCHool_Local,3.19303485030138,at-risk
École Primaire Sambo Mbilinga,0.3231,29.20069,,School,DRC_All_SCHool_Local,4.414883794121219,at-risk
Institut Vuhika,0.0919682,29.3194718,,School,DRC_All_SCHool_Local,2.756860932039253,at-risk
École Primaire Malepe,0.25965,29.27552,,School,DRC_All_SCHool_Local,5.172239904894656,at-risk
École Primaire Teule,0.1314259,29.3296225,,School,DRC_All_SCHool_Local,2.4892138194865923,at-risk
École Primaire Munimba,0.1599479,29.316928,,School,DRC_All_SCHool_Local,3.895913017971861,at-risk
École Primaire Kirindera,0.0952335,29.3119256,,School,DRC_All_SCHool_Local,2.3154573798233473,at-risk
Institut Nderembi,0.0978454,29.3060994,,School,DRC_All_SCHool_Local,2.1761181400020497,at-risk
Ecole Primaire Bulengera,0.1454052,29.3354654,,School,DRC_All_SCHool_Local,4.087788918379095,at-risk
École Primaire Mashua,0.35778,29.18608,,School,DRC_All_SCHool_Local,7.892201937875348,at-risk
Ecole Primaire Masiki,0.1211656,29.3015055,,School,DRC_All_SCHool_Local,1.4412140705100667,at-risk
École Secondaire Petits Génies,0.1281893,29.2937803,,School,DRC_All_SCHool_Local,0.6233202487223617,at-risk
École Primaire et Secondaire Vighole,0.0747606,29.3062283,,School,DRC_All_SCHool_Local,3.0559106396303948,at-risk
Kamatsi Mkb,1.1291944,29.9880833,,School,DRC_All_SCHool_Local,0.30909719177176753,at-risk
Ecole secondaire Mont Carmel,0.145,29.317383,,School,DRC_All_SCHool_Local,3.254449811815933,at-risk
École primaire Monseigneur Sikuli,0.0985916,29.2831809,,School,DRC_All_SCHool_Local,2.5449951912410476,at-risk
École primaire Bubanda,0.2594049,29.2333752,,School,DRC_All_SCHool_Local,2.771358320342918,at-risk
Ecole Secondaire CBCA Kikyo,0.1554495,29.3005668,,School,DRC_All_SCHool_Local,2.0098273125633517,at-risk
Complexe Scolaire Labourgeoisie,0.1269725,29.2954479,,School,DRC_All_SCHool_Local,0.8298564563918706,at-risk
École Primaire et Secondaire Mashua,0.3592,29.18553,,School,DRC_All_SCHool_Local,8.049011471318986,at-risk
École Primaire Mahero,0.1065092,29.2992114,,School,DRC_All_SCHool_Local,1.8979640751528946,at-risk
École secondaire Hanga,0.1217693,29.3220821,,School,DRC_All_SCHool_Local,1.1592706305297784,at-risk
École Secondaire Emmanuel,0.1287394,29.3113554,,School,DRC_All_SCHool_Local,1.4340477037320962,at-risk
École primaire Masimbembe,0.6108333,29.3121389,,School,DRC_All_SCHool_Local,0.7746889238825398,at-risk
Lycée Utamaduni,0.0967,29.3108847,,School,DRC_All_SCHool_Local,2.1646902419211638,at-risk
Ita Pimbo,1.8449725,30.469903,,School,DRC_All_SCHool_Local,1.2771315511506824,at-risk
École primaire Maliese,0.6794444,29.4132222,,School,DRC_All_SCHool_Local,3.2479973726449227,at-risk
École Primaire Kyavisogho,0.32256,29.24796,,School,DRC_All_SCHool_Local,5.3064038476308575,at-risk
École Primaire Huruma,0.1059573,29.3059008,,School,DRC_All_SCHool_Local,1.3937967944903775,at-risk
Institut Kanyihunga,0.26545,29.25541,,School,DRC_All_SCHool_Local,4.0624594656216875,at-risk
École Primaire Kisoko,0.105567,29.3338,,School,DRC_All_SCHool_Local,2.548558394444055,at-risk
Matafu,1.1802778,30.0348611,,School,DRC_All_SCHool_Local,4.729485086871787,at-risk
Institut Malkia Wa Mbingu,0.1403447,29.2984572,,School,DRC_All_SCHool_Local,1.7191555938341379,at-risk
École Primaire Kavisa,0.0960643,29.3119258,,School,DRC_All_SCHool_Local,2.2233148433694083,at-risk
Institut Mihake,0.1616095,29.2966249,,School,DRC_All_SCHool_Local,1.9623740032549744,at-risk
École Primaire Quinze,0.3453451,29.2988919,,School,DRC_All_SCHool_Local,3.1544189727573113,at-risk
École Secondaire Nuru,0.1588669,29.3173891,,School,DRC_All_SCHool_Local,3.9131000866802195,at-risk
École Primaire Vukaka,0.087517,29.2995,,School,DRC_All_SCHool_Local,2.628904213318959,at-risk
École Primaire Vungi,0.1326196,29.2942679,,School,DRC_All_SCHool_Local,0.7984584813355968,at-risk
École Primaire Matanda,0.0951351,29.284722,,School,DRC_All_SCHool_Local,2.214044572836799,at-risk
École Primaire Misevere,0.238533,29.244533,,School,DRC_All_SCHool_Local,2.6630246547556564,at-risk
École Biblique Mutiri,0.138,29.307517,,School,DRC_All_SCHool_Local,2.379954101970506,at-risk
École Primaire et Secondaire Bashu,0.2947158,29.3148671,,School,DRC_All_SCHool_Local,0.3296860815379565,at-risk
Ecole Primaire Mahano,0.1569326,29.3342585,,School,DRC_All_SCHool_Local,4.425623265234149,at-risk
École Secondaire Vuhumbu,0.128167,29.310933,,School,DRC_All_SCHool_Local,1.379783701115823,at-risk
Institut Mgr Henri Pierrard,0.1249687,29.3041946,,School,DRC_All_SCHool_Local,1.4283026345552061,at-risk
Institut La Fraternité,0.1160127,29.3074266,,School,DRC_All_SCHool_Local,0.6636549921431123,at-risk
Ecole primaire Ngazi,0.4188331,29.1543505,,School,DRC_All_SCHool_Local,7.008361282841458,at-risk
Institut Kyavaghendi,0.0935478,29.3344255,,School,DRC_All_SCHool_Local,2.865963053590694,at-risk
École Primaire Bakita,0.0900312,29.2890793,,School,DRC_All_SCHool_Local,1.9236751778520509,at-risk
Kaswara,1.2398056,30.0991111,,School,DRC_All_SCHool_Local,3.3183319386278494,at-risk
École Primaire Musimba,0.093784,29.271547,,School,DRC_All_SCHool_Local,1.2204782290443323,at-risk
École secondaire Bulumbi,0.1101956,29.3006519,,School,DRC_All_SCHool_Local,1.5572653686569187,at-risk
École primaire Kyatsinge,0.111558,29.273888,,School,DRC_All_SCHool_Local,2.4896178601227286,at-risk
Lycée Butembo,0.1302413,29.3205563,,School,DRC_All_SCHool_Local,1.7720027776762677,at-risk
École Primaire Kabasha,0.2382722,29.2628214,,School,DRC_All_SCHool_Local,2.481270882269458,at-risk
École Primaire Bwinongo,0.0773186,29.2933537,,School,DRC_All_SCHool_Local,1.6258916872859395,at-risk
Ecole primaire Reginacaeli,0.16155,29.29455,,School,DRC_All_SCHool_Local,1.7902820316275212,at-risk
École Primaire Bulumbi,0.1105009,29.3010368,,School,DRC_All_SCHool_Local,1.5042977498800418,at-risk
École Primaire Rupaya,0.29928,29.2466,,School,DRC_All_SCHool_Local,3.268136805141496,at-risk
Institut Masiki,0.1207207,29.301918,,School,DRC_All_SCHool_Local,1.3797081252312662,at-risk
Ecole Secondaire Malevu,0.1371127,29.3343576,,School,DRC_All_SCHool_Local,3.3078639538866708,at-risk
Institut Nyalumenge,0.1348864,29.300083,,School,DRC_All_SCHool_Local,1.485491077226429,at-risk
École Primaire Kihinga,0.1285415,29.311101,,School,DRC_All_SCHool_Local,1.4171410353908171,at-risk
École Primaire Ahimidiwe,0.1291796,29.3112329,,School,DRC_All_SCHool_Local,1.4845448892267543,at-risk
École Primaire et Secondaire Sauvetage,0.14285,29.3,,School,DRC_All_SCHool_Local,2.016616101925315,at-risk
École Primaire Bubanda II,0.25191,29.24971,,School,DRC_All_SCHool_Local,3.7659392645203495,at-risk
InstIitut La Vérité,0.1175146,29.3183009,,School,DRC_All_SCHool_Local,0.570752272272634,at-risk
École Primaire Butuhe,0.21322,29.2716,,School,DRC_All_SCHool_Local,0.153368312804344,at-risk
École primaire et secondaire Ngazi,0.41551,29.16044,,School,DRC_All_SCHool_Local,7.4591931117469015,at-risk
École Primaire Kilalu,0.1335741,29.3204096,,School,DRC_All_SCHool_Local,2.1035472114528595,at-risk
Ecole Primaire et Secondaire Mbilinga,0.31562,29.21604,,School,DRC_All_SCHool_Local,3.8151168172446384,at-risk
Institut Katwa,0.09442,29.3139454,,School,DRC_All_SCHool_Local,2.400922658893212,at-risk
Institut Loyola,0.1061334,29.279711,,School,DRC_All_SCHool_Local,2.6886508847824535,at-risk
Gety,1.2078056,30.1823889,,School,DRC_All_SCHool_Local,0.9109283542202705,at-risk
École Primaire Advantiste Hekima,0.1119628,29.3124466,,School,DRC_All_SCHool_Local,0.4616777981710007,at-risk
École primaire Mayazola,0.71,29.5276944,,School,DRC_All_SCHool_Local,1.2810759693457265,at-risk
École primaire et secondaire Malondo,0.3982,29.19551,,School,DRC_All_SCHool_Local,5.799193592108599,at-risk
Ecole Secondaire Livate,0.1374657,29.3338323,,School,DRC_All_SCHool_Local,3.2952796656787022,at-risk
Institut Superieur Biblique de Katwa,0.0967715,29.3122177,,School,DRC_All_SCHool_Local,2.1426704153647207,at-risk
École Secondaire Hekima,0.2813,29.27207,,School,DRC_All_SCHool_Local,4.896682524885908,at-risk
École Primaire Kitulu,0.1248134,29.3034406,,School,DRC_All_SCHool_Local,1.478004170009855,at-risk
Ecole primaire et secondaire Visiki,0.395626,29.2244464,,School,DRC_All_SCHool_Local,4.336341772646776,at-risk
École Primaire Kirivata,0.1397258,29.2994804,,School,DRC_All_SCHool_Local,1.747988778247262,at-risk
École Primaire Menge,0.1359114,29.3011297,,School,DRC_All_SCHool_Local,1.6418412367850768,at-risk
Sorodo II,1.1455833,30.0242778,,School,DRC_All_SCHool_Local,2.0679908525076725,at-risk
École Primaire Nderembi,0.0985,29.30495,,School,DRC_All_SCHool_Local,2.161140837690089,at-risk
École primaire Mambombo,0.39947,29.19624,,School,DRC_All_SCHool_Local,5.6441403601376114,at-risk
École Primaire Hanga,0.12175,29.3217,,School,DRC_All_SCHool_Local,1.1228912351876372,at-risk
École primaire Katasohire,0.122759,29.3113087,,School,DRC_All_SCHool_Local,0.786024224893091,at-risk
Institut Ngununu,0.1400897,29.3068437,,School,DRC_All_SCHool_Local,2.4246857742068593,at-risk
Complexe Scolaire Vuvatsi,0.1383914,29.3074935,,School,DRC_All_SCHool_Local,2.396700993262899,at-risk
École Primaire Heri,0.1317531,29.3295763,,School,DRC_All_SCHool_Local,2.5107309613812565,at-risk
Institut Tuyitsinge,0.1521622,29.3078234,,School,DRC_All_SCHool_Local,2.7337915084153366,at-risk
École Primaire et Secondaire Mikala,0.32826,29.24898,,School,DRC_All_SCHool_Local,5.909726995160894,at-risk
École primaire et secondaire Vusamba,0.022115,29.161467,,School,DRC_All_SCHool_Local,3.5262808145394473,at-risk
École primaire et secondaire Musitu Et Mabwe,0.04176,29.064797,,School,DRC_All_SCHool_Local,1.1883703530365008,at-risk
École primaire Musasa,-0.077387,29.135341,,School,DRC_All_SCHool_Local,3.2609989703954985,at-risk
École primaire Musangalya,0.0776381,29.4096378,,School,DRC_All_SCHool_Local,2.6359410101081875,at-risk
École primaire Mavoghu,0.060722,29.058826,,School,DRC_All_SCHool_Local,0.8697280540375716,at-risk
Ecole primaire Muvugha,-0.0287,29.437877,,School,DRC_All_SCHool_Local,3.9627256951090852,at-risk
École primaire Kavasinza,0.086359,29.158882,,School,DRC_All_SCHool_Local,2.6824750274588967,at-risk
Église Primaire Magheria,0.0625326,29.3672841,,School,DRC_All_SCHool_Local,2.3006946995930626,at-risk
Ecole primaire et secondaire Burusi,-0.081114,29.453054,,School,DRC_All_SCHool_Local,4.946650086328244,at-risk
Ecole primaire Busamba,0.019128,29.159436,,School,DRC_All_SCHool_Local,3.7557103683016524,at-risk
Ecole secondaire Kauli,-0.248189,29.417682,,School,DRC_All_SCHool_Local,4.652637427816954,at-risk
Ecole primaire et secondaire Vusorongi,-0.043847,29.495146,,School,DRC_All_SCHool_Local,2.4196707364405787,at-risk
Institut Pédagogique Adventiste de Lukanga,-0.057677,29.3028598,,School,DRC_All_SCHool_Local,2.217151191281154,at-risk
Ecole primaire Vurondo,-0.042343,29.502651,,School,DRC_All_SCHool_Local,2.731676381084128,at-risk
École primaire Katsunga,0.02106,29.158588,,School,DRC_All_SCHool_Local,3.844236534395368,at-risk
École primaire Matembo,0.063167,29.008791,,School,DRC_All_SCHool_Local,4.4740436905127385,at-risk
École Primaire Bayangwa,0.058822,29.3616756,,School,DRC_All_SCHool_Local,2.4427910773943764,at-risk
École Primaire Ngeleza,0.0390868,29.3437212,,School,DRC_All_SCHool_Local,1.7576351434752466,at-risk
Ecole primaire Katembo,0.013147,29.070249,,School,DRC_All_SCHool_Local,2.0632485359435915,at-risk
Ecole primaire Buyinga,0.061324,29.055163,,School,DRC_All_SCHool_Local,0.482337573206068,at-risk
Kisima,-0.290569,29.401239,,School,DRC_All_SCHool_Local,0.40293247557630885,at-risk
Ecole secondaire Kalimba,-0.3655084,29.3143531,,School,DRC_All_SCHool_Local,1.6011506629313923,at-risk
Ecole primaire Kivuwa,0.08935,29.159598,,School,DRC_All_SCHool_Local,2.4108913552322506,at-risk
Ecole primaire Virenge,-0.203201,29.301804,,School,DRC_All_SCHool_Local,3.1831657842105114,at-risk
Ecole primaire Tuvuke / Burusi,-0.079415,29.454511,,School,DRC_All_SCHool_Local,4.7304754795075,at-risk
École Primaire Ndando,0.064145,29.280671,,School,DRC_All_SCHool_Local,1.349267261159245,at-risk
Ecole primaire Kanyamulamba,0.072912,29.084326,,School,DRC_All_SCHool_Local,0.04375163548573564,at-risk
Ecole primaire Kivuwe,-0.0023049,29.498892,,School,DRC_All_SCHool_Local,2.6365932710538322,at-risk
Ecole secondaire Mulo,-0.1347767,29.2666818,,School,DRC_All_SCHool_Local,5.130806678865214,at-risk
École primaire Katiri,-0.031163,29.37762,,School,DRC_All_SCHool_Local,4.878994831142189,at-risk
Ecole primaire Kasinga,0.0317193,29.2098927,,School,DRC_All_SCHool_Local,2.209638157449599,at-risk
Ecole primaire Kyangendi,-0.000426,29.533243,,School,DRC_All_SCHool_Local,2.55388623485052,at-risk
Ecole secondaire Kyangendi,-0.002898,29.523677,,School,DRC_All_SCHool_Local,2.118664468179889,at-risk
Ecole primaire Masumo,-0.0319035,29.1442662,,School,DRC_All_SCHool_Local,8.010190939290075,at-risk
Ecole primaire Kasiyiro,0.095526,28.975012,,School,DRC_All_SCHool_Local,0.6480554955106766,at-risk
Ecole primaire Ceca20 Matuna,0.0576893,28.9061133,,School,DRC_All_SCHool_Local,5.813998178708317,at-risk
Ecole secondaire Matolu,-0.369235,29.345057,,School,DRC_All_SCHool_Local,5.018137412572356,at-risk
École primaire Kasiyiro,0.012895,29.013831,,School,DRC_All_SCHool_Local,6.097813642934479,at-risk
École primaire Ndeko,0.074447,29.124266,,School,DRC_All_SCHool_Local,2.2163546670835066,at-risk
Ecole primaire Itunduliro,-0.029139,29.390294,,School,DRC_All_SCHool_Local,3.697259631871723,at-risk
Ecole primaire Bukembe,-0.014768,29.420701,,School,DRC_All_SCHool_Local,1.5250932970844007,at-risk
Ecole primaire Kavisegho,-0.278399,29.299314,,School,DRC_All_SCHool_Local,4.134687591949324,at-risk
Ecole primaire Vayana,-0.0157634,29.4191386,,School,DRC_All_SCHool_Local,1.516787136003327,at-risk
École Primaire Bughumirya,0.040709,29.316429,,School,DRC_All_SCHool_Local,2.9732643726510166,at-risk
Ecole primaire Sana,0.066668,29.096996,,School,DRC_All_SCHool_Local,1.547461285137635,at-risk
Ecole primaire Mwangaza,0.028692,29.103747,,School,DRC_All_SCHool_Local,0.8169608730469412,at-risk
École primaire Vulimira,0.033155,29.287761,,School,DRC_All_SCHool_Local,2.3455507277557484,at-risk
École primaire Vulimira,-0.002667,29.523514,,School,DRC_All_SCHool_Local,2.0877609064759874,at-risk
École primaire Kirungu,0.025472,29.363266,,School,DRC_All_SCHool_Local,2.847170655893777,at-risk
Ecole primaire Yakanyama,-6.1263056,24.5326389,,School,DRC_All_SCHool_Local,5.506940736994754,at-risk
Ecole primaire Kintukimune,-6.1301111,24.4907778,,School,DRC_All_SCHool_Local,0.8976765993484832,at-risk
Ecole primaire Kalambayi,-6.1348333,24.4884167,,School,DRC_All_SCHool_Local,0.5862811545180666,at-risk
École primaire Shimatayi,-6.1416667,24.4762222,,School,DRC_All_SCHool_Local,1.2152137993145913,at-risk
École primaire Tuendeyi,-6.1493889,24.4661389,,School,DRC_All_SCHool_Local,2.6078598026338176,at-risk
Ecole primaire Lukubama,-6.1416667,24.4896944,,School,DRC_All_SCHool_Local,1.1633316714732798,at-risk
École primaire Nambutwile,-6.1301111,24.4902222,,School,DRC_All_SCHool_Local,0.8417111929361547,at-risk
École primaire Shimatayi,-6.1180999,24.512553,,School,DRC_All_SCHool_Local,3.6476907650499233,at-risk
Ecole primaire Kintukimune,-6.1065439,24.5271086,,School,DRC_All_SCHool_Local,5.683114775789343,at-risk
École primaire Kalambayi,-6.1112663,24.5247475,,School,DRC_All_SCHool_Local,5.19482779329763,at-risk
Ecole primaire Nambutwile,-6.1065439,24.526553,,School,DRC_All_SCHool_Local,5.630893359732792,at-risk
Ecole primaire Tuendeyi,-6.1258225,24.5024697,,School,DRC_All_SCHool_Local,2.2745969357221063,at-risk
Ecole primaire Lukubama,-6.1180999,24.5260253,,School,DRC_All_SCHool_Local,5.014786781409642,at-risk
École primaire Diyeba,-5.8386111,22.6655,,School,DRC_All_SCHool_Local,6.900327427625817,at-risk
École primaire Benaleka 3,-5.0961111,22.0958333,,School,DRC_All_SCHool_Local,8.343076245530298,at-risk
École primaire Musasa Kumi,-5.8102778,22.6852778,,School,DRC_All_SCHool_Local,7.67560459362281,at-risk
Ecole primaire Tshikuma,-5.4775,22.3008333,,School,DRC_All_SCHool_Local,4.534389642222821,at-risk
École primaire Lubudi,-5.7980556,22.7918889,,School,DRC_All_SCHool_Local,6.699770297351035,at-risk
Ecole primaire Ntema,-5.8527778,21.5652778,,School,DRC_All_SCHool_Local,9.72920765066106,at-risk
École primaire Ntumba Nsengu,-5.7933333,22.6991944,,School,DRC_All_SCHool_Local,9.15975058103407,at-risk
Ecole primaire Kambote,-5.7394444,22.5639722,,School,DRC_All_SCHool_Local,8.906470364001942,at-risk
Ecole primaire Imeny,-5.8530556,21.5652778,,School,DRC_All_SCHool_Local,9.707815687903032,at-risk
École primaire Tshimajiba 2,-5.9530556,22.2683333,,School,DRC_All_SCHool_Local,3.4044091082479393,at-risk
École primaire Katadi,-5.7825,22.8640833,,School,DRC_All_SCHool_Local,1.5234948364463448,at-risk
École primaire Baluishi,-5.8394444,22.6025,,School,DRC_All_SCHool_Local,4.657595644432088,at-risk
École primaire Mpashi 2,-5.9311111,22.4805278,,School,DRC_All_SCHool_Local,3.6741472381996805,at-risk
École primaire Lubi A Mpata,-5.9522222,22.4641667,,School,DRC_All_SCHool_Local,5.8265094015651355,at-risk
Ecole primaire Wanfuala,-5.8586111,21.5429722,,School,DRC_All_SCHool_Local,7.60381944803638,at-risk
Ecole primaire Bwanga Bwa Tulo,-8.1897222,26.9497222,,School,DRC_All_SCHool_Local,9.552961207870071,at-risk
École primaire Nzazi,-8.6522778,26.5091111,,School,DRC_All_SCHool_Local,5.707161715378988,at-risk
Ecole primaire Kamungu,-8.1644444,27.0325,,School,DRC_All_SCHool_Local,0.26360097138548844,at-risk
École primaire Maleo I,-9.1991389,25.8522222,,School,DRC_All_SCHool_Local,0.26203924292506336,at-risk
Ecole primaire Zazi,-8.6538889,26.515,,School,DRC_All_SCHool_Local,5.817321461967449,at-risk
Ecole primaire Kayombo,-8.6995833,26.5203056,,School,DRC_All_SCHool_Local,3.3313794312730565,at-risk
Ecole primaire Mutanya,-8.19775,27.0494444,,School,DRC_All_SCHool_Local,3.8846234380810634,at-risk
Ecole primaire Nyembo Layi,-8.1646944,27.0319444,,School,DRC_All_SCHool_Local,0.2673413849330725,at-risk
Ecole primaire Lusa Lwa Lesa,-8.1752778,26.4127778,,School,DRC_All_SCHool_Local,2.956425048881896,at-risk
École primaire Lulu Mwango,-9.2076216,25.8498396,,School,DRC_All_SCHool_Local,0.8476661115841859,at-risk
Ecole primaire Misania,-8.4986944,26.7286389,,School,DRC_All_SCHool_Local,9.322191999435017,at-risk
École primaire Konga Batwi,-9.2086944,25.8570833,,School,DRC_All_SCHool_Local,1.240618508993256,at-risk
Ecole primaire Malubu 3,-8.1626159,27.0340603,,School,DRC_All_SCHool_Local,0.45751959903620937,at-risk
École primaire Nkunwa,-8.5360556,26.5825278,,School,DRC_All_SCHool_Local,7.450008713129607,at-risk
École primaire Kazele I,-9.2056362,25.8535078,,School,DRC_All_SCHool_Local,0.735541526065906,at-risk
École primaire Kamunza,-8.1813889,27.0325,,School,DRC_All_SCHool_Local,1.6395660882223015,at-risk
École primaire Kiyenge,-8.1519444,27.0444444,,School,DRC_All_SCHool_Local,2.0434809488417893,at-risk
École primaire Ngala Ya Lwalala,-9.2030556,25.8477778,,School,DRC_All_SCHool_Local,0.4182554425207733,at-risk
École primaire Luwe,-8.7235833,26.4391667,,School,DRC_All_SCHool_Local,6.171984758797099,at-risk
École ISDR,-7.0549741,29.7312561,,School,DRC_All_SCHool_Local,4.11828059560591,at-risk
École primaire Murumbi,-7.0688808,29.7453007,,School,DRC_All_SCHool_Local,2.370586512686184,at-risk
Ecole primaire Dikuluzi,-8.46,28.9076944,,School,DRC_All_SCHool_Local,1.125050201784322,at-risk
Centre De Promotion Sociale,-7.0646492,29.72885,,School,DRC_All_SCHool_Local,4.179151947333692,at-risk
Ecole primaire Cawama II,-8.4703837,28.9044112,,School,DRC_All_SCHool_Local,0.6373180456719904,at-risk
École primaire Kirungu,-7.0758514,29.7372201,,School,DRC_All_SCHool_Local,3.406146429701074,at-risk
École primaire Kashengeneke,-8.469487,28.8985332,,School,DRC_All_SCHool_Local,0.3526342797397917,at-risk
École primaire Methodiste,-7.2769256,29.7400082,,School,DRC_All_SCHool_Local,0.824361591521231,at-risk
École primaire Mano A Mano,-7.0361779,29.7618592,,School,DRC_All_SCHool_Local,3.431497444525772,at-risk
École primaire Mwanga,-7.0600673,29.7318871,,School,DRC_All_SCHool_Local,3.9075274290900777,at-risk
Ecole primaire Kapondo,-8.5323611,28.8371389,,School,DRC_All_SCHool_Local,8.817752684244207,at-risk
École primaire Kilimantinde,-7.032299,29.7552381,,School,DRC_All_SCHool_Local,4.024291424437102,at-risk
École primaire Furaha Yetu,-7.0736111,29.7325,,School,DRC_All_SCHool_Local,3.8485636338415636,at-risk
École primaire Muhila,-7.0819458,29.7292609,,School,DRC_All_SCHool_Local,4.463663251878019,at-risk
École secondaire Inst Lukenta,-7.02414,29.7568475,,School,DRC_All_SCHool_Local,4.851359184609915,at-risk
École Amimo,-7.0923231,29.7140077,,School,DRC_All_SCHool_Local,6.473336918441233,at-risk
Ecole primaire Saint Joseph,-8.4717778,28.9006111,,School,DRC_All_SCHool_Local,0.5722555862568346,at-risk
École secondaire Inst Amani,-7.0551257,29.7290655,,School,DRC_All_SCHool_Local,4.343311808843594,at-risk
École primaire Bakunda,-8.4772362,28.9073128,,School,DRC_All_SCHool_Local,1.4240954734190994,at-risk
École primaire Kinyongoro,-7.251824,29.7445471,,School,DRC_All_SCHool_Local,2.234372945662301,at-risk
École primaire Kalongo,-7.1005556,29.715,,School,DRC_All_SCHool_Local,6.834030255990649,at-risk
École primaire Zoale,-7.08,29.7011667,,School,DRC_All_SCHool_Local,7.378353531501334,at-risk
École primaire Vyura,-7.0594444,29.7602778,,School,DRC_All_SCHool_Local,1.068690377753909,at-risk
École primaire Moba,-7.0733333,29.7152778,,School,DRC_All_SCHool_Local,5.7190122476559155,at-risk
École primaire Inst Kinzembo,-7.041254,29.7671706,,School,DRC_All_SCHool_Local,2.8263430939495517,at-risk
École primaire Kampilikwe,-7.5684495,29.7943276,,School,DRC_All_SCHool_Local,6.933749840708364,at-risk
École secondaire Inst Mulembwe,-7.0765336,29.7373511,,School,DRC_All_SCHool_Local,3.4159588391974633,at-risk
École primaire Kabunyange,-8.4613173,28.8979584,,School,DRC_All_SCHool_Local,0.6358281202633906,at-risk
École secondaire Vyura,-7.0332435,29.755987,,School,DRC_All_SCHool_Local,3.898923748700955,at-risk
École primaire Mitobo,-7.4021147,29.3274523,,School,DRC_All_SCHool_Local,0.3663536164193793,at-risk
École secondaire Inst Kasenga,-7.2769642,29.7397553,,School,DRC_All_SCHool_Local,0.8479136816077333,at-risk
École secondaire Lubasha,-7.0970877,29.7112337,,School,DRC_All_SCHool_Local,6.989875161908109,at-risk
École primaire Furaha Yetu,-7.0635931,29.7310185,,School,DRC_All_SCHool_Local,3.9486554034677446,at-risk
École primaire Moba,-7.0641708,29.7292118,,School,DRC_All_SCHool_Local,4.142511431284746,at-risk
École primaire Klimantinde,-7.055,29.76,,School,DRC_All_SCHool_Local,1.4914060776134912,at-risk
École primaire Kashiba,-7.0244382,29.7564467,,School,DRC_All_SCHool_Local,4.82918241317746,at-risk
École secondaire Inst Lyapenda 1,-7.0327137,29.7548956,,School,DRC_All_SCHool_Local,3.992664793281996,at-risk
École primaire Zoal,-7.0778855,29.7306896,,School,DRC_All_SCHool_Local,4.161434781565155,at-risk
Ecole primaire Kamfisha,-8.4717778,28.9000722,,School,DRC_All_SCHool_Local,0.5683505058519159,at-risk
École primaire Internat Garçons,-7.5396578,29.7402169,,School,DRC_All_SCHool_Local,0.3124789386559358,at-risk
École primaire Mwila 1,-7.0360975,29.7582424,,School,DRC_All_SCHool_Local,3.524017302346751,at-risk
École primaire Lubelenge,-7.0449634,29.7745251,,School,DRC_All_SCHool_Local,2.56439769420966,at-risk
École primaire Katumbaku,-7.076164,29.7318231,,School,DRC_All_SCHool_Local,3.9873739496975107,at-risk
École primaire Sante We Leza,-7.0781685,29.7200997,,School,DRC_All_SCHool_Local,5.295405992629763,at-risk
École secondaire Inst Kaoze,-7.0729345,29.7418604,,School,DRC_All_SCHool_Local,2.8247170709113014,at-risk
École primaire Pepa,-7.709313,29.7841608,,School,DRC_All_SCHool_Local,1.0395679356256193,at-risk
École secondaire Inst Nganie,-7.0242048,29.7566883,,School,DRC_All_SCHool_Local,4.848296220645917,at-risk
École ITM Moba,-7.0669976,29.7349804,,School,DRC_All_SCHool_Local,3.4968163461171815,at-risk
Ecole primaire Mpelembe,-8.3956667,28.92525,,School,DRC_All_SCHool_Local,8.369144233768566,at-risk
École primaire Katumbaku,-7.0880556,29.7244444,,School,DRC_All_SCHool_Local,5.231076709690687,at-risk
Ecole primaire Cawama III,-8.4950762,28.9560985,,School,DRC_All_SCHool_Local,6.931356727375708,at-risk
École primaire Katonge,-7.3349302,29.5226253,,School,DRC_All_SCHool_Local,6.811740163191083,at-risk
Ecole primaire Milenda,-8.2734597,29.6116901,,School,DRC_All_SCHool_Local,2.808803869286578,at-risk
École secondaire Inst Kabuka,-7.0821364,29.7253247,,School,DRC_All_SCHool_Local,4.8755688802070845,at-risk
École primaire Regeza,-7.0462996,29.7761342,,School,DRC_All_SCHool_Local,2.4941055067017803,at-risk
École primaire Mwansakananga,-8.4636944,28.4552778,,School,DRC_All_SCHool_Local,9.396415233486206,at-risk
École primaire Mukomba,-7.1286576,29.739952,,School,DRC_All_SCHool_Local,7.496904691004696,at-risk
École primaire Kamanya,-7.0869444,29.81,,School,DRC_All_SCHool_Local,5.286638814222844,at-risk
École primaire Internat Filles,-7.53989,29.7399289,,School,DRC_All_SCHool_Local,0.33855835709952375,at-risk
École primaire Kalizya,-7.0936111,29.7461111,,School,DRC_All_SCHool_Local,3.757845772720553,at-risk
Ecole primaire Kaansa,-8.4863889,28.9371111,,School,DRC_All_SCHool_Local,4.633323971980412,at-risk
École secondaire Lycée Alfajiri,-7.0626783,29.7309685,,School,DRC_All_SCHool_Local,3.964244557821525,at-risk
École primaire Mwabu,-8.57175,28.7975833,,School,DRC_All_SCHool_Local,6.908898710197406,at-risk
École primaire Lyapenda,-7.5384113,29.7395978,,School,DRC_All_SCHool_Local,0.18222140376271403,at-risk
Ecole primaire Kasereka,-8.4739444,28.9037222,,School,DRC_All_SCHool_Local,0.9068675757209029,at-risk
Ecole primaire Inst Lyapenda,-7.538093,29.7402842,,School,DRC_All_SCHool_Local,0.1396988388110641,at-risk
École primaire Kasenga,-7.25185,29.7467557,,School,DRC_All_SCHool_Local,2.2333195186408843,at-risk
École primaire Garenganze,-7.2746613,29.7464558,,School,DRC_All_SCHool_Local,0.32509405564593075,at-risk
École secondaire Inst Mukisa,-7.0457058,29.7763338,,School,DRC_All_SCHool_Local,2.563299403227397,at-risk
Ecole primaire Kalenge,-8.5579444,28.8084722,,School,DRC_All_SCHool_Local,6.767419722560479,at-risk
École primaire Murumbi,-7.0816667,29.7433333,,School,DRC_All_SCHool_Local,3.067841119689216,at-risk
École primaire Kilama,-7.2745783,29.7459503,,School,DRC_All_SCHool_Local,0.3023835692558144,at-risk
École primaire Moliro,-8.239207,30.5743552,,School,DRC_All_SCHool_Local,0.6005332297214043,at-risk
Ecole Primaire Maendeleo II,-5.9311411,29.192377,,School,DRC_All_SCHool_Local,0.877622054127568,at-risk
École Primaire Maendeleo I,-5.9310388,29.1928974,,School,DRC_All_SCHool_Local,0.8259278317977041,at-risk
École primaire Mapendano,-5.9572811,28.0180334,,School,DRC_All_SCHool_Local,0.8236037850213508,at-risk
Ecole Primaire Idaya,-5.9411111,29.165,,School,DRC_All_SCHool_Local,3.966390001118348,at-risk
Centre d'alphabetistion Rumbende / Elombe 2,-3.8286944,29.0933333,,School,DRC_All_SCHool_Local,0.12818854685733871,at-risk
École primaire Cobwe,-4.6953194,28.6463417,,School,DRC_All_SCHool_Local,0.1386396424541299,at-risk
Ecole secondaire Mukolwe,-3.9220833,29.0994167,,School,DRC_All_SCHool_Local,3.499598401776296,at-risk
Ecole primaire Bibokoboko 2,-4.0191667,29.0050556,,School,DRC_All_SCHool_Local,2.336824891416635,at-risk
Ecole primaire Magembe,-4.0142239,28.1060344,,School,DRC_All_SCHool_Local,1.9729485093213124,at-risk
École primaire Abala,-3.921887,28.8668445,,School,DRC_All_SCHool_Local,0.3947619233204583,at-risk
Ecole secondaire Inst Maarifa,-3.6620056,29.1436722,,School,DRC_All_SCHool_Local,0.9778855903008228,at-risk
Ecole secondaire Nakiele,-3.8638611,28.9057778,,School,DRC_All_SCHool_Local,2.5767946638602277,at-risk
Ecole primaire Runundu Cepac,-3.9568889,28.7261111,,School,DRC_All_SCHool_Local,0.6515090600265664,at-risk
Ecole secondaire Sebele,-4.3088611,29.04425,,School,DRC_All_SCHool_Local,0.3033575704669818,at-risk
Ecole secondaire Irundu,-3.9067479,28.7472642,,School,DRC_All_SCHool_Local,0.1607481759056162,at-risk
École primaire Misisi,-4.7675278,28.7054444,,School,DRC_All_SCHool_Local,2.358322819958243,at-risk
École primaire Mukwezi,-3.6759086,29.1393365,,School,DRC_All_SCHool_Local,0.3367735465718211,at-risk
École primaire Simbi,-4.1633056,28.9395,,School,DRC_All_SCHool_Local,0.5592087237605924,at-risk
Ecole secondaire Inst Luundo,-3.7200028,29.1168306,,School,DRC_All_SCHool_Local,1.604903721078077,at-risk
Ecole primaire Mabenga,-4.2207222,28.3652778,,School,DRC_All_SCHool_Local,5.462086280622488,at-risk
Ecole secondaire Inst Mulengezi,-4.1068976,29.0890355,,School,DRC_All_SCHool_Local,1.7944018625418519,at-risk
Ecole secondaire Kilumbi,-3.8687778,28.9338889,,School,DRC_All_SCHool_Local,2.5632416253926813,at-risk
Ecole primaire Kisalu,-3.9708087,27.9881564,,School,DRC_All_SCHool_Local,3.4657759995858606,at-risk
Ecole primaire Tumaini,-3.6611694,29.1391389,,School,DRC_All_SCHool_Local,0.9865563235979627,at-risk
Ecole primaire Kilebecha,-4.2138333,28.3591944,,School,DRC_All_SCHool_Local,4.441531423842164,at-risk
Ecole primaire Mukolwe,-3.9409194,29.1068778,,School,DRC_All_SCHool_Local,5.507796129055269,at-risk
Ecole primaire Kanguli,-3.8776667,28.8820556,,School,DRC_All_SCHool_Local,3.921672917841621,at-risk
Ecole primaire Yungu,-4.2475751,29.2395817,,School,DRC_All_SCHool_Local,3.4759150581043645,at-risk
Ecole primaire Ruhemba,-3.9333056,28.6820278,,School,DRC_All_SCHool_Local,2.758695424914497,at-risk
École primaire Lubenga,-4.184963,29.0540254,,School,DRC_All_SCHool_Local,2.4892254888360834,at-risk
Ecole secondaire Inst Neema,-3.7679194,29.0918278,,School,DRC_All_SCHool_Local,0.7459631958199645,at-risk
Ecole secondaire Inst Musaada,-4.3251297,28.9502097,,School,DRC_All_SCHool_Local,2.7535187902217264,at-risk
Ecole primaire Akela,-4.5131222,28.8167361,,School,DRC_All_SCHool_Local,2.360267642368643,at-risk
Ecole secondaire Inst Kitindi,-3.750625,28.733675,,School,DRC_All_SCHool_Local,1.6474814464846093,at-risk
Ecole primaire Manga,-4.0846305,29.2273815,,School,DRC_All_SCHool_Local,4.680856925153241,at-risk
École primaire Bitongotongo,-4.5744444,28.7879444,,School,DRC_All_SCHool_Local,8.385009290285248,at-risk
École primaire Lucimu,-4.6802722,28.6546306,,School,DRC_All_SCHool_Local,1.912461353809636,at-risk
Centre d'alphabetistion Nakiele,-3.8634167,28.9060278,,School,DRC_All_SCHool_Local,2.6076152550400207,at-risk
École primaire Ngalula,-4.9656111,28.81575,,School,DRC_All_SCHool_Local,1.0475061157015255,at-risk
Ecole secondaire Inst Elobe,-3.6529306,29.1474694,,School,DRC_All_SCHool_Local,0.5047489002907458,at-risk
Ecole primaire Kiziba,-3.9228333,28.7125833,,School,DRC_All_SCHool_Local,1.3625509572560432,at-risk
Ecole secondaire Inst Lulinda,-3.8992444,29.1026972,,School,DRC_All_SCHool_Local,0.964732443717013,at-risk
Ecole secondaire Kabingo 1,-3.9921997,28.7186358,,School,DRC_All_SCHool_Local,3.4638894111135445,at-risk
Ecole secondaire Bakwalumona,-4.4338366,29.2042837,,School,DRC_All_SCHool_Local,8.15566687581316,at-risk
Ecole secondaire Inst Tupendane,-3.9922639,29.1047806,,School,DRC_All_SCHool_Local,1.0105311898975224,at-risk
École primaire Bakwalumona,-4.4676249,29.20946,,School,DRC_All_SCHool_Local,6.819972010564181,at-risk
Ecole secondaire Inst Faraja,-3.6823278,29.1366917,,School,DRC_All_SCHool_Local,1.0579719768044187,at-risk
Institut Mwenge wa Taifa,-4.1074444,29.0944722,,School,DRC_All_SCHool_Local,2.002440615651135,at-risk
École primaire Ngalula,-4.96475,28.8102778,,School,DRC_All_SCHool_Local,0.9813703673792641,at-risk
Ecole secondaire Ecole Technique Agricole,-3.7832111,29.095,,School,DRC_All_SCHool_Local,0.554851114560186,at-risk
École primaire Lukongo,-4.2920591,28.954976,,School,DRC_All_SCHool_Local,1.0411997839347995,at-risk
École primaire Butale Kikumba,-4.7976667,28.7122222,,School,DRC_All_SCHool_Local,1.9793835055092226,at-risk
Ecole primaire Ushirika,-3.9982694,29.1017972,,School,DRC_All_SCHool_Local,0.27707835251194335,at-risk
École primaire Lulinda,-3.8978861,29.1034,,School,DRC_All_SCHool_Local,0.7949092915069572,at-risk
École primaire Ngusu,-4.1995556,28.3085556,,School,DRC_All_SCHool_Local,3.28695798070165,at-risk
Ecole Inst Technique Medical,-3.8199194,29.0961583,,School,DRC_All_SCHool_Local,0.39540042718132046,at-risk
École primaire Kakenge 1,-3.9589722,28.7606111,,School,DRC_All_SCHool_Local,2.487894334717559,at-risk
École primaire Tuungane,-3.7914139,29.0957583,,School,DRC_All_SCHool_Local,1.0175939250375634,at-risk
École primaire Kaseke,-4.2678333,29.0417222,,School,DRC_All_SCHool_Local,1.385406667166474,at-risk
École primaire Kibundu,-3.9916167,29.1056694,,School,DRC_All_SCHool_Local,1.124475649394769,at-risk
Ecole primaire Yungu,-4.1884444,29.2513056,,School,DRC_All_SCHool_Local,3.325220820106949,at-risk
Ecole secondaire Abala,-3.9218244,28.8668422,,School,DRC_All_SCHool_Local,0.4006970548142477,at-risk
Ecole secondaire Institut Amani,-4.2046134,29.0364581,,School,DRC_All_SCHool_Local,1.4316664294206134,at-risk
École primaire Zawadi,-3.8820889,29.1009194,,School,DRC_All_SCHool_Local,0.40984043809622495,at-risk
Ecole secondaire Inst Some,-4.1303056,29.2116472,,School,DRC_All_SCHool_Local,0.6938244483231231,at-risk
École primaire Misisi,-4.7632077,28.6981507,,School,DRC_All_SCHool_Local,1.6328397511642359,at-risk
Ecole secondaire Inst Lweba,-4.0018975,29.0979553,,School,DRC_All_SCHool_Local,0.3097722040118282,at-risk
École primaire Lubishako Ishebwe,-4.85625,28.74225,,School,DRC_All_SCHool_Local,0.8301900328166841,at-risk
Ecole primaire Aocha,-3.7907972,29.0924361,,School,DRC_All_SCHool_Local,1.1829123448264172,at-risk
Ecole secondaire Bukuchu,-4.0416599,28.0082711,,School,DRC_All_SCHool_Local,9.91627567868846,at-risk
Ecole secondaire Inst Madegu,-3.9414722,28.7332639,,School,DRC_All_SCHool_Local,0.546883059794552,at-risk
Ecole secondaire Inst Esumbe,-4.0433362,28.0122719,,School,DRC_All_SCHool_Local,9.472163806029553,at-risk
Ecole primaire Bulumba,-3.7855639,29.0933528,,School,DRC_All_SCHool_Local,0.7793013260824281,at-risk
Ecole primaire Abela,-4.0386389,29.0868056,,School,DRC_All_SCHool_Local,0.9250393461927591,at-risk
Ecole secondaire Basikikela,-4.5457222,29.1584167,,School,DRC_All_SCHool_Local,0.41671535854516795,at-risk
Ecole secondaire Inst Malinde,-4.2008649,29.0372826,,School,DRC_All_SCHool_Local,1.4326802057666308,at-risk
Ecole secondaire Inst Nundu,-3.8198611,29.0928472,,School,DRC_All_SCHool_Local,0.7627504751710292,at-risk
Ecole primaire Talama,-4.9631389,29.1110833,,School,DRC_All_SCHool_Local,2.3291158926133853,at-risk
Ecole secondaire Inst De Fizi,-4.3415944,28.9417889,,School,DRC_All_SCHool_Local,4.509264713360698,at-risk
Ecole secondaire Etea,-3.8720556,28.8791944,,School,DRC_All_SCHool_Local,4.385377068097577,at-risk
Ecole primaire Kaboke2,-3.8330889,29.0965528,,School,DRC_All_SCHool_Local,0.5117358313935649,at-risk
Ecole primaire Kakomba,-4.1619632,29.0624267,,School,DRC_All_SCHool_Local,2.12983353397279,at-risk
École primaire Lubonja,-4.6574582,28.7666799,,School,DRC_All_SCHool_Local,4.151478029109086,at-risk
Ecole primaire Kabingo 1,-3.9798889,28.7256667,,School,DRC_All_SCHool_Local,1.9541998670473046,at-risk
Ecole secondaire Kitavi,-3.8906217,28.7463159,,School,DRC_All_SCHool_Local,0.48836067826778123,at-risk
Ecole secondaire Kakenge 2,-3.953,28.7757222,,School,DRC_All_SCHool_Local,3.8457899766402215,at-risk
École Secondaire Inst Temoin,-3.6875556,29.1331444,,School,DRC_All_SCHool_Local,1.7599948475074227,at-risk
École primaire Bibokoboko 1,-4.02875,28.9927778,,School,DRC_All_SCHool_Local,1.7116971359851931,at-risk
Ecole primaire A'amba,-3.7199167,29.1166111,,School,DRC_All_SCHool_Local,1.6072409179845644,at-risk
École primaire Nemba 1 et Institut Nemba 1,-4.3325149,29.091152,,School,DRC_All_SCHool_Local,5.992085794404558,at-risk
École primaire Amani,-4.0030028,29.0994167,,School,DRC_All_SCHool_Local,0.3401072726108503,at-risk
Ecole primaire Alenga,-4.0993326,29.089495,,School,DRC_All_SCHool_Local,0.9706682029558227,at-risk
Ecole primaire Mishashu,-3.8999722,28.7084444,,School,DRC_All_SCHool_Local,0.2715475373961628,at-risk
École primaire Maendeleo,-3.7870139,29.0900611,,School,DRC_All_SCHool_Local,1.1775342822046402,at-risk
Ecole primaire Centre Commercial,-4.2982273,28.9462944,,School,DRC_All_SCHool_Local,0.3980734423462383,at-risk
École secondaire Lulimba Centre,-4.6960833,28.6463889,,School,DRC_All_SCHool_Local,0.11852330937609633,at-risk
Ecole secondaire Runundu Cepac,-3.9518596,28.7283844,,School,DRC_All_SCHool_Local,0.2637259173468695,at-risk
Centre d'alphabetistion Mabenga,-4.2199444,28.3675556,,School,DRC_All_SCHool_Local,5.565629853433199,at-risk
Ecole primaire Sangya,-3.81995,29.0938611,,School,DRC_All_SCHool_Local,0.6502910475914312,at-risk
Ecole primaire Kalingi I,-3.8573056,28.7740972,,School,DRC_All_SCHool_Local,0.8088753412763235,at-risk
École primaire Mukela,-4.1511667,28.8860278,,School,DRC_All_SCHool_Local,3.1352959757299805,at-risk
Ecole primaire Isungu,-3.8889486,29.0992836,,School,DRC_All_SCHool_Local,0.8336644872702511,at-risk
École primaire Basikikela,-4.5525957,29.155544,,School,DRC_All_SCHool_Local,1.1773405833817574,at-risk
Ecole secondaire Inst Umoja,-4.0999581,29.0961713,,School,DRC_All_SCHool_Local,1.3980319499802696,at-risk
École primaire Misufi,-4.2419437,28.9128228,,School,DRC_All_SCHool_Local,7.440741885857757,at-risk
Ecole primaire Mukwezi,-3.6826389,29.137,,School,DRC_All_SCHool_Local,1.068896381756803,at-risk
École primaire Mkobwe,-4.694725,28.6478472,,School,DRC_All_SCHool_Local,0.13903087807731732,at-risk
Ecole secondaire Masha,-3.9634167,28.6908611,,School,DRC_All_SCHool_Local,3.3194085123695696,at-risk
Ecole primaire Yungu,-4.2476778,29.2395408,,School,DRC_All_SCHool_Local,3.487461263705845,at-risk
École primaire Lubishako,-4.8614722,28.7559444,,School,DRC_All_SCHool_Local,0.8710989568269306,at-risk
École primaire Mboko,-3.7822056,29.0965389,,School,DRC_All_SCHool_Local,0.40283859332769595,at-risk
École Primaire A'amba,-3.7288611,29.1166667,,School,DRC_All_SCHool_Local,0.7090038116894766,at-risk
Ecole primaire Katunga,-3.8762694,29.0954167,,School,DRC_All_SCHool_Local,0.5223938046770726,at-risk
École primaire Nakiele,-3.8633333,28.9060278,,School,DRC_All_SCHool_Local,2.615865176370297,at-risk
Ecole primaire Kyengye,-3.8417306,29.0967056,,School,DRC_All_SCHool_Local,1.375072344373913,at-risk
Ecole primaire Tchaboba,-3.8068139,29.1017056,,School,DRC_All_SCHool_Local,0.2852342697502454,at-risk
Ecole primaire Kafulo,-4.1126111,28.982,,School,DRC_All_SCHool_Local,4.134057595707366,at-risk
Ecole secondaire Kalundja,-4.0640713,29.0862502,,School,DRC_All_SCHool_Local,0.5287612496354727,at-risk
Ecole primaire Kabanga,-4.2629722,29.1688333,,School,DRC_All_SCHool_Local,9.487117293553164,at-risk
Ecole secondaire Rumbende / Elombe 2,-3.8462778,29.0920556,,School,DRC_All_SCHool_Local,1.8321755444843977,at-risk
Ecole secondaire Inst Tech. Asec,-4.2586389,29.0397778,,School,DRC_All_SCHool_Local,2.4192935011938896,at-risk
École primaire Kahunga,-3.8824139,29.0986556,,School,DRC_All_SCHool_Local,0.42070741577165843,at-risk
Ecole primaire Katupu,-3.9601165,28.0862178,,School,DRC_All_SCHool_Local,3.0002930308923017,at-risk
Ecole primaire Kishula,-4.1088333,28.8806389,,School,DRC_All_SCHool_Local,1.848151318247392,at-risk
École primaire Apemba,-3.8462075,29.0919722,,School,DRC_All_SCHool_Local,1.8250924333960892,at-risk
Ecole secondaire Inst Kichungwe,-4.0925944,28.1483694,,School,DRC_All_SCHool_Local,3.525664283649172,at-risk
Ecole secondaire Inst Kaboke 3,-3.8417722,29.0983694,,School,DRC_All_SCHool_Local,1.4413381325145782,at-risk
Ecole secondaire Inst Biesse,-3.6757778,29.1391111,,School,DRC_All_SCHool_Local,0.35215634065509055,at-risk
Ecole primaire Lubumba,-3.9719972,29.1077139,,School,DRC_All_SCHool_Local,3.2292000973440627,at-risk
Ecole primaire Talama,-4.9651667,29.1119167,,School,DRC_All_SCHool_Local,2.0874168202395063,at-risk
Ecole primaire Lusambo,-3.8586,29.0906056,,School,DRC_All_SCHool_Local,2.4416499416790027,at-risk
Ecole secondaire Centre Commercial,-4.2953076,28.9410405,,School,DRC_All_SCHool_Local,0.7325336294582231,at-risk
Ecole primaire Tundwa,-3.7748764,29.0944316,,School,DRC_All_SCHool_Local,1.1220742685847072,at-risk
École primaire Amani Ake,-3.6788667,29.1371806,,School,DRC_All_SCHool_Local,0.7271190544535244,at-risk
Ecole secondaire Kikonde,-4.4770392,29.0003382,,School,DRC_All_SCHool_Local,3.5085630796851657,at-risk
École primaire Lulimba Centre,-4.6894095,28.6490738,,School,DRC_All_SCHool_Local,0.744939371500246,at-risk
Centre d'alphabetistion Kilumbi,-3.8675556,28.9343056,,School,DRC_All_SCHool_Local,2.689709445859399,at-risk
Ecole primaire Evasion,-4.0590397,28.0261271,,School,DRC_All_SCHool_Local,8.141171747738756,at-risk
Ecole secondaire Complexe Solaire Isoko,-4.1111306,29.0945417,,School,DRC_All_SCHool_Local,2.3882964659569437,at-risk
Ecole primaire Pungwe,-3.9718611,28.8720278,,School,DRC_All_SCHool_Local,5.270707906837298,at-risk
Ecole primaire Bukuchu,-4.0428333,28.0104167,,School,DRC_All_SCHool_Local,9.677667648183244,at-risk
Ecole secondaire Madegu,-3.9355,28.7303611,,School,DRC_All_SCHool_Local,0.10030470415638564,at-risk
École primaire Mabenga,-4.2182222,28.3661389,,School,DRC_All_SCHool_Local,5.318452854257852,at-risk
Ecole primaire Rutigita / Monyi,-3.9886944,28.6829444,,School,DRC_All_SCHool_Local,0.38874156108538177,at-risk
Ecole secondaire Ruhemba,-3.9333333,28.6820278,,School,DRC_All_SCHool_Local,2.7581924595305454,at-risk
Ecole primaire Lubomo,-4.1885562,29.2513177,,School,DRC_All_SCHool_Local,3.314119150270112,at-risk
École primaire Elimionga,-3.9220639,29.0995028,,School,DRC_All_SCHool_Local,3.4953946390164115,at-risk
Ecole primaire Alenga,-4.1076338,29.0852588,,School,DRC_All_SCHool_Local,1.884628344780608,at-risk
Ecole primaire Akuku/akumba,-3.9477778,28.9891389,,School,DRC_All_SCHool_Local,1.2777615404336415,at-risk
École primaire Yungu,-4.0827658,29.2283325,,School,DRC_All_SCHool_Local,4.910824408081129,at-risk
Ecole secondaire Inst Alembe,-3.791375,29.095125,,School,DRC_All_SCHool_Local,1.0482300344122837,at-risk
Ecole primaire Centre Commercial,-4.2949686,28.9409324,,School,DRC_All_SCHool_Local,0.7714472054845081,at-risk
École secondaire Misisi,-4.762829,28.6982621,,School,DRC_All_SCHool_Local,1.6582020397651702,at-risk
Ecole primaire Mmandama,-3.8438639,29.0947639,,School,DRC_All_SCHool_Local,1.56738950205018,at-risk
École primaire Bakwalumona,-4.4872304,29.2133829,,School,DRC_All_SCHool_Local,7.04075172347571,at-risk
École primaire Bachanga Sud,-4.9079444,28.7689722,,School,DRC_All_SCHool_Local,0.3588154246485153,at-risk
École primaire Etea,-3.877,28.8793889,,School,DRC_All_SCHool_Local,4.226202375700265,at-risk
Ecole primaire Sebele,-4.3082376,29.0436112,,School,DRC_All_SCHool_Local,0.295461900384254,at-risk
Ecole primaire Nyawalimba,-3.9799444,28.7256667,,School,DRC_All_SCHool_Local,1.9603202025210402,at-risk
Ecole primaire Basikanga,-4.1841389,28.284,,School,DRC_All_SCHool_Local,5.471695342651701,at-risk
Ecole primaire Kivumu,-3.9113611,28.7006111,,School,DRC_All_SCHool_Local,0.05440878396545634,at-risk
École primaire Rumbende / Elombe 2,-3.8255263,29.093839,,School,DRC_All_SCHool_Local,0.4843160935818542,at-risk
École primaire Bidegu 1,-3.8974722,28.7765833,,School,DRC_All_SCHool_Local,3.498805269820972,at-risk
Ecole primaire Basikikela,-4.5456944,29.1584444,,School,DRC_All_SCHool_Local,0.414715176417074,at-risk
École primaire Mushilwa,-4.1375,28.9980278,,School,DRC_All_SCHool_Local,5.692446488357697,at-risk
École primaire Andale,-4.0111667,29.0968611,,School,DRC_All_SCHool_Local,1.1540900739609612,at-risk
École primaire Madegu,-3.9355556,28.7303611,,School,DRC_All_SCHool_Local,0.10647383024742983,at-risk
Ecole primaire Kitumaini,-4.3009091,28.9420943,,School,DRC_All_SCHool_Local,0.23091858208801996,at-risk
Ecole secondaire Inst Lubumba,-3.9727028,29.1076556,,School,DRC_All_SCHool_Local,3.151865440851806,at-risk
École primaire Kichanga,-4.0649444,28.8815,,School,DRC_All_SCHool_Local,6.6834341837787585,at-risk
École primaire Mama Yemo,-4.1039144,29.0944136,,School,DRC_All_SCHool_Local,1.6443202043720684,at-risk
Ecole primaire Lwiko,-4.02225,28.7224444,,School,DRC_All_SCHool_Local,5.515752950629032,at-risk
Ecole primaire Makola,-4.0448826,28.0977853,,School,DRC_All_SCHool_Local,0.24671266831807598,at-risk
Ecole primaire Alenga,-4.1019777,29.0906178,,School,DRC_All_SCHool_Local,1.2865758082856833,at-risk
École primaire Mehembe,-3.9509475,29.1066315,,School,DRC_All_SCHool_Local,5.503770532758634,at-risk
Ecole secondaire Inst Waubwela,-3.7875611,29.0981778,,School,DRC_All_SCHool_Local,0.5151447879907006,at-risk
Ecole secondaire Lusenda,-3.8822778,29.09875,,School,DRC_All_SCHool_Local,0.4037995408069955,at-risk
Ecole secondaire Inst Ntanganyika,-3.7164888,29.120285,,School,DRC_All_SCHool_Local,2.10513362709873,at-risk
Ecole primaire Talama,-4.9636389,29.1113889,,School,DRC_All_SCHool_Local,2.266594863116732,at-risk
Ecole primaire Kitavi,-3.8906055,28.7463769,,School,DRC_All_SCHool_Local,0.48542411445798206,at-risk
Ecole primaire Sayuni,-4.3003054,28.9416332,,School,DRC_All_SCHool_Local,0.29488737553858435,at-risk
École primaire Boko,-3.7929861,29.0914722,,School,DRC_All_SCHool_Local,1.433623366437245,at-risk
École primaire Kikonde,-4.4767654,29.0004951,,School,DRC_All_SCHool_Local,3.4815591519790328,at-risk
École primaire Bitobolo,-3.959143,29.1053532,,School,DRC_All_SCHool_Local,4.581734530357526,at-risk
Ecole primaire Mizimu / Dine,-4.0926389,29.2587778,,School,DRC_All_SCHool_Local,6.0840138490787785,at-risk
Ecole primaire Irundu,-3.9068056,28.7473611,,School,DRC_All_SCHool_Local,0.1654586905797245,at-risk
Ecole primaire Abela,-4.0330278,29.0894167,,School,DRC_All_SCHool_Local,1.447214629939768,at-risk
Ecole primaire A'amba,-3.7162778,29.1196944,,School,DRC_All_SCHool_Local,2.101386703561522,at-risk
Ecole secondaire Kihungwe,-4.0843333,28.1538056,,School,DRC_All_SCHool_Local,2.4277146275112744,at-risk
Ecole secondaire Inst Itm,-3.74765,28.7426139,,School,DRC_All_SCHool_Local,1.5718332662154593,at-risk
Ecole secondaire Institut du Lac,-3.7893489,29.0917592,,School,DRC_All_SCHool_Local,1.1350809262363561,at-risk
Ecole secondaire Inst Piluka,-3.6976889,29.128675,,School,DRC_All_SCHool_Local,1.3819137850745689,at-risk
Ecole primaire Kibamba,-4.7949728,29.0967805,,School,DRC_All_SCHool_Local,8.771066992356982,at-risk
École primaire Kakunga,-4.3251844,28.9502325,,School,DRC_All_SCHool_Local,2.7600336580566776,at-risk
École Secondaire Inst techn Agr. Majaga,-3.7287444,29.1164111,,School,DRC_All_SCHool_Local,0.7019181863374171,at-risk
École primaire Kabogo 1 2 3,-4.5758611,29.1388611,,School,DRC_All_SCHool_Local,4.268423644515228,at-risk
Ecole primaire Lycï¿½e Mama Yemo,-4.1080278,29.0967222,,School,DRC_All_SCHool_Local,2.1683737136786467,at-risk
Ecole secondaire Rutigita / Monyi,-3.9886667,28.6829444,,School,DRC_All_SCHool_Local,0.39182127870407435,at-risk
École primaire Katalukulu,-4.2588401,29.0395867,,School,DRC_All_SCHool_Local,2.3992227712372105,at-risk
Ecole primaire Kabongozi,-3.7682861,29.0918028,,School,DRC_All_SCHool_Local,0.7862144231402823,at-risk
Ecole primaire Lwandiko,-4.6642609,28.5746359,,School,DRC_All_SCHool_Local,8.80291069041626,at-risk
École primaire Bobela,-2.5680083,26.6254167,,School,DRC_All_SCHool_Local,0.983322374332156,at-risk
Ecole secondaire Itp Shada,-2.7069306,27.3325528,,School,DRC_All_SCHool_Local,0.775504494575088,at-risk
Ecole primaire Inst Kyelu,-2.8612833,27.0961722,,School,DRC_All_SCHool_Local,2.9100900379750527,at-risk
Ecole primaire Kabalibali,-3.5980278,26.6681111,,School,DRC_All_SCHool_Local,7.586707623321771,at-risk
Ecole secondaire Inst Mibake,-2.5859639,26.6176778,,School,DRC_All_SCHool_Local,2.148653153233455,at-risk
Ecole secondaire Ita Mukula,-2.6908083,26.3621528,,School,DRC_All_SCHool_Local,8.498450546601807,at-risk
Ecole secondaire Lukukaongo,-2.5675306,26.6254583,,School,DRC_All_SCHool_Local,0.981276903705047,at-risk
Ecole primaire Dima,-2.5973917,26.6558528,,School,DRC_All_SCHool_Local,5.533461952825626,at-risk
École primaire Itabala,-2.5986444,26.645075,,School,DRC_All_SCHool_Local,4.7540609632441635,at-risk
Ecole secondaire Inst Musuku,-2.5600302,26.6228355,,School,DRC_All_SCHool_Local,1.0070442480983801,at-risk
Ecole primaire Tujikaze,-2.5708222,27.2713472,,School,DRC_All_SCHool_Local,8.396689538699308,at-risk
École primaire Peneidomba,-3.6040299,26.6647358,,School,DRC_All_SCHool_Local,8.325212394937747,at-risk
Ecole primaire Itampo,-2.6903139,26.3623556,,School,DRC_All_SCHool_Local,8.537316027512091,at-risk
École primaire Matazi,-2.7392028,26.24975,,School,DRC_All_SCHool_Local,5.17850399380511,at-risk
Ecole primaire Kalema,-2.6122333,26.5985778,,School,DRC_All_SCHool_Local,5.450637536842537,at-risk
Ecole primaire Kisubi,-2.5643722,26.6297056,,School,DRC_All_SCHool_Local,1.4706787937798975,at-risk
Ecole secondaire Inst Kabilo,-3.5945333,26.6692639,,School,DRC_All_SCHool_Local,7.2247144393488245,at-risk
Ecole secondaire Yela,-2.4427872,27.3843755,,School,DRC_All_SCHool_Local,0.6219652544294644,at-risk
Ecole secondaire Inst Lumande,-2.5833139,26.6518333,,School,DRC_All_SCHool_Local,4.322740204856908,at-risk
École primaire Mankulu Kizikibi,-2.7050118,27.3252599,,School,DRC_All_SCHool_Local,1.055755806191001,at-risk
Ecole primaire El Madini,-2.5730028,26.620375,,School,DRC_All_SCHool_Local,0.8160827753504488,at-risk
Ecole primaire Lubambania,-2.4372054,27.3940655,,School,DRC_All_SCHool_Local,0.6376321832812812,at-risk
Ecole secondaire Inst Laheki,-2.7456833,26.24505,,School,DRC_All_SCHool_Local,6.009126812966513,at-risk
Ecole primaire Ngelingeli,-2.590125,26.6436028,,School,DRC_All_SCHool_Local,3.9694357936555846,at-risk
École primaire Salukwako,-2.5939028,26.689725,,School,DRC_All_SCHool_Local,8.662107935536941,at-risk
Ecole primaire Nyanzi,-2.4414012,27.4008793,,School,DRC_All_SCHool_Local,1.2522024318673035,at-risk
Ecole secondaire Ipk,-2.5702944,26.6189583,,School,DRC_All_SCHool_Local,0.47694125118571346,at-risk
Ecole primaire Nakenge,-2.592125,26.6498722,,School,DRC_All_SCHool_Local,4.6495729385721924,at-risk
Ecole primaire Kilinga,-2.5985111,26.6867778,,School,DRC_All_SCHool_Local,8.555212652382874,at-risk
Ecole secondaire Inst Mupende,-3.5988597,26.6663013,,School,DRC_All_SCHool_Local,7.7948467770244525,at-risk
Ecole secondaire Inst Mukumbe,-3.5686333,26.7914556,,School,DRC_All_SCHool_Local,8.55476917841006,at-risk
Ecole primaire Malumba,-2.5813056,26.6426111,,School,DRC_All_SCHool_Local,3.30985178878873,at-risk
Ecole primaire Kitabi,-3.5966667,26.6666667,,School,DRC_All_SCHool_Local,7.597225473189573,at-risk
Ecole primaire Maseke,-2.6056917,26.6069528,,School,DRC_All_SCHool_Local,4.471502864111994,at-risk
Ecole secondaire Inst Baganda,-2.5923583,26.6488611,,School,DRC_All_SCHool_Local,4.577131640336766,at-risk
Ecole primaire Kachungu,-2.4410931,27.3841579,,School,DRC_All_SCHool_Local,0.6077069556510296,at-risk
Ecole primaire Tengeneza,-2.5924778,26.6497778,,School,DRC_All_SCHool_Local,4.665288759508314,at-risk
Ecole secondaire Itpk,-2.5705083,26.6205944,,School,DRC_All_SCHool_Local,0.6105510587691592,at-risk
Ecole secondaire Makungu,-2.5871889,26.6452111,,School,DRC_All_SCHool_Local,3.9065153086503077,at-risk
Ecole primaire Musuku,-2.5590139,26.6217417,,School,DRC_All_SCHool_Local,1.0207611229306923,at-risk
Ecole primaire Byankungu,-2.6934211,27.2895225,,School,DRC_All_SCHool_Local,0.27527541955281,at-risk
Ecole primaire Ikunza,-2.571475,27.2738972,,School,DRC_All_SCHool_Local,8.15155583994299,at-risk
Ecole secondaire Inst Kalima,-2.5703333,26.6281694,,School,DRC_All_SCHool_Local,1.3411844022802795,at-risk
Centre d'alphabetistion Alphabetisation Des Mamans,-2.593625,26.6500861,,School,DRC_All_SCHool_Local,4.771424319343105,at-risk
Ecole secondaire Inst Tubia,-3.5896104,26.6774927,,School,DRC_All_SCHool_Local,6.188734383070027,at-risk
Ecole primaire Nyalubwe,-2.6777415,27.336853,,School,DRC_All_SCHool_Local,2.505722724225503,at-risk
Ecole primaire Makunzu,-2.5896389,26.6576861,,School,DRC_All_SCHool_Local,5.22364160876198,at-risk
Ecole secondaire Inst Micenda,-2.4366165,27.39046,,School,DRC_All_SCHool_Local,0.4782249963810041,at-risk
Ecole primaire Sikuzani,-2.5651333,26.6367028,,School,DRC_All_SCHool_Local,2.232169840477314,at-risk
École primaire Lugungu,-2.5764194,27.2684083,,School,DRC_All_SCHool_Local,8.192671640055076,at-risk
Ecole secondaire Lumbeku,-2.5813389,26.6426278,,School,DRC_All_SCHool_Local,3.31328879221389,at-risk
Ecole primaire Ii Mibake,-2.5983806,26.6532667,,School,DRC_All_SCHool_Local,5.381846895898157,at-risk
Ecole primaire Elimu,-2.5900417,26.6534306,,School,DRC_All_SCHool_Local,4.840752975759765,at-risk
Ecole primaire Kampene,-3.5882927,26.6826476,,School,DRC_All_SCHool_Local,5.690709614138225,at-risk
Ecole secondaire Inst Kamisuku,-2.5595,26.6234083,,School,DRC_All_SCHool_Local,1.0935620095435845,at-risk
Ecole secondaire Inst Amini,-2.5888139,26.6419361,,School,DRC_All_SCHool_Local,3.734098834955823,at-risk
Ecole secondaire Inst De Kampene,-3.5969972,26.6660972,,School,DRC_All_SCHool_Local,7.668505925600043,at-risk
Ecole primaire Kisasa,-2.8780472,27.1302806,,School,DRC_All_SCHool_Local,6.988801051192244,at-risk
Ecole secondaire Inst Ngelingeli,-2.5884389,26.6419,,School,DRC_All_SCHool_Local,3.70369621836588,at-risk
Ecole primaire Kitangi,-3.5659583,26.793325,,School,DRC_All_SCHool_Local,8.69063901856241,at-risk
Ecole secondaire Inst Mukwale,-2.5715056,26.6385111,,School,DRC_All_SCHool_Local,2.4854442623390116,at-risk
École primaire Lukamba,-2.8770556,27.1181111,,School,DRC_All_SCHool_Local,5.6696050767576684,at-risk
Ecole secondaire Inst Kisanga I,-2.6082889,26.6032611,,School,DRC_All_SCHool_Local,4.861818635742579,at-risk
Ecole primaire Lugungu,-2.5658778,27.2678444,,School,DRC_All_SCHool_Local,9.064398474231764,at-risk
Ecole secondaire Inst Mabikwa,-2.5702472,26.6283139,,School,DRC_All_SCHool_Local,1.353638726458733,at-risk
Ecole secondaire Lilyalya,-2.6839546,27.3423327,,School,DRC_All_SCHool_Local,2.0451126103601283,at-risk
Ecole primaire Nyamwaka,-3.5991667,26.6719444,,School,DRC_All_SCHool_Local,7.383962957803685,at-risk
Ecole secondaire Lubungu,-2.5669333,27.2615028,,School,DRC_All_SCHool_Local,9.473270326857227,at-risk
Ecole primaire Tchabangwa,-2.7046917,26.2917694,,School,DRC_All_SCHool_Local,1.168159375681141,at-risk
Ecole primaire I Mibake,-2.5861778,26.6176528,,School,DRC_All_SCHool_Local,2.172263841507397,at-risk
Ecole secondaire Inst Kasese,-2.5699972,26.6231722,,School,DRC_All_SCHool_Local,0.8119733794056421,at-risk
École primaire Nkoba,-2.7368536,27.270991,,School,DRC_All_SCHool_Local,5.464158347399449,at-risk
École primaire Kibazonga,-2.6140111,27.303075,,School,DRC_All_SCHool_Local,2.5825736374507815,at-risk
Ecole primaire Lipango,-2.5912917,26.6439722,,School,DRC_All_SCHool_Local,4.086228579599586,at-risk
Ecole secondaire Inst Kimbili,-2.5908111,26.6439167,,School,DRC_All_SCHool_Local,4.0459990582317324,at-risk
École primaire Mangulu,-2.7071835,27.3574004,,School,DRC_All_SCHool_Local,2.7899816462802205,at-risk
Ecole secondaire Kilembela,-2.4426859,27.3855605,,School,DRC_All_SCHool_Local,0.4959302672141558,at-risk
Ecole secondaire Inst Kabamba,-2.5990389,26.6456944,,School,DRC_All_SCHool_Local,4.832591810103199,at-risk
Ecole secondaire Inst Dikisa,-3.5856306,26.6831528,,School,DRC_All_SCHool_Local,5.434226504072998,at-risk
Ecole primaire Matabisi,-3.5849056,26.6834222,,School,DRC_All_SCHool_Local,5.355093241551803,at-risk
Ecole primaire Ikunza,-2.5696083,27.2643056,,School,DRC_All_SCHool_Local,9.042679461467053,at-risk
Ecole primaire Inst Chem Chem,-2.5564722,26.6179222,,School,DRC_All_SCHool_Local,1.142152842175878,at-risk
Ecole primaire Mukwale,-2.5715472,26.6385778,,School,DRC_All_SCHool_Local,2.4936808240598913,at-risk
Ecole secondaire ITM,-2.5674083,26.6178139,,School,DRC_All_SCHool_Local,0.1517420360567479,at-risk
Ecole secondaire Itpdmk,-2.5934833,26.6505472,,School,DRC_All_SCHool_Local,4.801581609951792,at-risk
Ecole primaire Kakutya,-2.5920278,26.6489306,,School,DRC_All_SCHool_Local,4.5603503608384335,at-risk
Ecole primaire Tuntungulu,-2.7615198,27.2461073,,School,DRC_All_SCHool_Local,9.159511262364441,at-risk
Ecole primaire Kalamundo,-2.8618689,27.0918816,,School,DRC_All_SCHool_Local,2.4389597853603195,at-risk
Ecole primaire Amini,-2.5886944,26.6421694,,School,DRC_All_SCHool_Local,3.744914511204501,at-risk
École primaire Kamwami,-3.1578197,26.7106957,,School,DRC_All_SCHool_Local,9.04556020446817,at-risk
École primaire Kibazonga,-2.6079694,27.3021778,,School,DRC_All_SCHool_Local,3.0582369426536036,at-risk
Ecole primaire Mumbuza,-2.761225,26.2156917,,School,DRC_All_SCHool_Local,9.683790889600434,at-risk
École primaire Minsie,-5.496,14.6854167,,School,DRC_All_SCHool_Local,2.462245254892653,at-risk
Ecole primaire Sadisa,-5.3600278,13.2731111,,School,DRC_All_SCHool_Local,3.052859097444761,at-risk
École primaire Ntuadisi,-5.5004167,14.6921944,,School,DRC_All_SCHool_Local,1.5723342872129709,at-risk
Ecole primaire Mavuma,-5.1998889,15.0805833,,School,DRC_All_SCHool_Local,8.349459763730122,at-risk
Ecole primaire Seke Banza,-5.3388889,13.2843333,,School,DRC_All_SCHool_Local,2.051137893452053,at-risk
Ecole primaire Kilemba Kinti,-5.2049167,14.5095556,,School,DRC_All_SCHool_Local,6.215031609189155,at-risk
Ecole primaire Mantuila,-5.57075,14.4317778,,School,DRC_All_SCHool_Local,2.3137054918063518,at-risk
École primaire Mudekoko,-5.3374167,13.2746111,,School,DRC_All_SCHool_Local,0.9898202079973042,at-risk
École primaire Nkitudia,-5.1407222,15.0510556,,School,DRC_All_SCHool_Local,3.6894073885168077,at-risk
École primaire Nkenge,-5.4989722,14.6802222,,School,DRC_All_SCHool_Local,2.7727749156069748,at-risk
Ecole primaire Kuilu,-5.521,14.6846389,,School,DRC_All_SCHool_Local,2.355223521294139,at-risk
École primaire Mema,-5.4943611,14.6863333,,School,DRC_All_SCHool_Local,2.5058772320029137,at-risk
Ecole primaire Minkondo,-5.8338333,13.0613611,,School,DRC_All_SCHool_Local,2.193387412974892,at-risk
Ecole primaire Mbuka,-5.4505,14.6733889,,School,DRC_All_SCHool_Local,7.359219233103619,at-risk
Ecole primaire Kisalu,-5.3389167,13.2748333,,School,DRC_All_SCHool_Local,1.0967754474965201,at-risk
Ecole primaire Lukala Ngemba,-5.5103333,14.5116111,,School,DRC_All_SCHool_Local,9.721770062185525,at-risk
École primaire Ngongolo,-5.1463333,15.0503611,,School,DRC_All_SCHool_Local,4.088264533532163,at-risk
École primaire Vuvu,-5.8283056,13.0559722,,School,DRC_All_SCHool_Local,2.5011320815235742,at-risk
Ecole primaire Kukiele,-5.3404167,13.2797222,,School,DRC_All_SCHool_Local,1.6460701842643246,at-risk
École primaire Bangu Langa,-5.3195,14.9065,,School,DRC_All_SCHool_Local,8.771087498537351,at-risk
Ecole primaire Kingemba,-5.5133611,14.6811389,,School,DRC_All_SCHool_Local,2.423052497643593,at-risk
Ecole primaire Minsie,-5.5800278,14.6546111,,School,DRC_All_SCHool_Local,9.44596206602985,at-risk
Ecole primaire Kinsende,-5.4631667,14.6453056,,School,DRC_All_SCHool_Local,8.210241667238426,at-risk
École primaire Lukunga,-4.3642222,15.2158611,,School,DRC_All_SCHool_Local,6.801783287516782,at-risk
Ecole primaire Luozi,-4.3666312,15.2183701,,School,DRC_All_SCHool_Local,6.623110414542151,at-risk
École primaire Bosalisani,-4.3685,15.2266944,,School,DRC_All_SCHool_Local,5.849208355774805,at-risk
Ecole primaire Kuvuna,-4.3581111,15.2165556,,School,DRC_All_SCHool_Local,6.528728294799103,at-risk
École primaire Mankala,-4.4626667,15.3466111,,School,DRC_All_SCHool_Local,5.103274968824737,at-risk
École primaire Raisa,-4.3763611,15.2244444,,School,DRC_All_SCHool_Local,6.481255376711308,at-risk
Ecole Primaire Kilambu,-4.4403651,15.3502998,,School,DRC_All_SCHool_Local,3.1107538218726654,at-risk
Ecole primaire Bolingo,-4.38275,15.2350278,,School,DRC_All_SCHool_Local,5.968042171479286,at-risk
Ecole primaire Lutendele Kimbangu,-4.3759167,15.1935833,,School,DRC_All_SCHool_Local,9.558707111567609,at-risk
Ecole primaire Mbobe 1,-3.3103611,17.3600278,,School,DRC_All_SCHool_Local,2.352276775239587,at-risk
École primaire Kitsinga,-4.9065923,17.0189906,,School,DRC_All_SCHool_Local,5.942708519290759,at-risk
Ecole Nkufi Kilanga,-3.2969573,17.3737355,,School,DRC_All_SCHool_Local,2.377552429823943,at-risk
École primaire Lufimi,-4.5412695,16.3151536,,School,DRC_All_SCHool_Local,0.07543456686237388,at-risk
Ecole primaire Monkana,-3.4369722,17.2611111,,School,DRC_All_SCHool_Local,0.24758050616921842,at-risk
École secondaire Ecole Technique Profesionnelle Bukanga-lonzo,-4.706294,16.7911651,,School,DRC_All_SCHool_Local,6.306999598389355,at-risk
Ecole secondaire Inst Luliba,-3.4596889,27.1900972,,School,DRC_All_SCHool_Local,1.3613307150021485,at-risk
Ecole secondaire Inst Tchelo,-3.246275,26.5984028,,School,DRC_All_SCHool_Local,8.001382446554086,at-risk
École primaire Kalomba,-3.4216194,27.2167611,,School,DRC_All_SCHool_Local,1.9402207659269706,at-risk
Ecole secondaire Inst Kananga,-3.4628028,27.1908944,,School,DRC_All_SCHool_Local,1.0601789316914918,at-risk
Ecole secondaire Inst Imara,-3.5649861,27.3284861,,School,DRC_All_SCHool_Local,6.8632078163994565,at-risk
Ecole primaire Idumbo,-3.3034861,27.2016833,,School,DRC_All_SCHool_Local,8.580609449997853,at-risk
Ecole primaire Kazombo,-3.5650222,27.3292944,,School,DRC_All_SCHool_Local,6.95277294177987,at-risk
Ecole secondaire Inst Penekusu II,-3.4644028,27.1908083,,School,DRC_All_SCHool_Local,0.9686675076064488,at-risk
Ecole secondaire Inst Binkutu,-3.5252056,27.2350222,,School,DRC_All_SCHool_Local,5.7956033290791,at-risk
Ecole secondaire Inst Penekusu,-3.4623444,27.1877694,,School,DRC_All_SCHool_Local,1.3753620248149006,at-risk
Centre d'alphabetistion Ema Penekusu,-3.4605639,27.1889972,,School,DRC_All_SCHool_Local,1.3811729544540539,at-risk
Ecole primaire Kakumbu,-3.5676361,27.3437556,,School,DRC_All_SCHool_Local,8.555932399565783,at-risk
Ecole secondaire Inst Lulenge,-3.5539944,27.2801694,,School,DRC_All_SCHool_Local,2.0569754883534017,at-risk
École primaire Mikabu,-3.5548556,27.2793861,,School,DRC_All_SCHool_Local,1.9280721271104382,at-risk
Ecole secondaire Inst De Mulamba,-3.1714924,26.6408015,,School,DRC_All_SCHool_Local,1.555962074715484,at-risk
École primaire Kyabumwa,-3.1718333,26.6348028,,School,DRC_All_SCHool_Local,1.2890785901470352,at-risk
École primaire Faraja,-3.5681778,27.3401556,,School,DRC_All_SCHool_Local,8.157455195773947,at-risk
Ecole secondaire Inst De Pangi,-3.1716389,26.6318667,,School,DRC_All_SCHool_Local,1.3104755165505575,at-risk
École primaire Tchelo,-3.2237361,26.6020194,,School,DRC_All_SCHool_Local,5.680624218893658,at-risk
Ecole primaire Binkutu,-3.5271769,27.2371707,,School,DRC_All_SCHool_Local,5.477035577705762,at-risk
Ecole primaire Kingombe,-3.2118639,26.6111861,,School,DRC_All_SCHool_Local,4.013769280908586,at-risk
Ecole primaire Mwangaza,-3.3979556,27.2143139,,School,DRC_All_SCHool_Local,2.6178801830140213,at-risk
Ecole secondaire Inst Kikamba,-3.2305528,27.1841389,,School,DRC_All_SCHool_Local,0.24716836165657302,at-risk
Ecole primaire Kikamba,-3.2292139,27.1836361,,School,DRC_All_SCHool_Local,0.1137556007754755,at-risk
Ecole primaire Ikungu,-3.2782444,27.1982194,,School,DRC_All_SCHool_Local,5.765756353630774,at-risk
Ecole primaire Nyalukungu,-3.4295528,27.2139472,,School,DRC_All_SCHool_Local,2.1094082533886716,at-risk
Ecole primaire Kyabila,-3.2268222,27.1831528,,School,DRC_All_SCHool_Local,0.20103528054078765,at-risk
Ecole secondaire Inst Ufaamu,-3.3852139,27.2078083,,School,DRC_All_SCHool_Local,3.603217481645111,at-risk
Ecole primaire Ndima,-3.4571222,27.1860444,,School,DRC_All_SCHool_Local,1.8809676997436253,at-risk
Ecole primaire Babibu II,-3.38595,27.2073111,,School,DRC_All_SCHool_Local,3.5106584414249262,at-risk
Ecole primaire Kalola/kigogo,-3.2465139,27.1918139,,School,DRC_All_SCHool_Local,2.193590725880412,at-risk
Ecole primaire Penekusu,-3.4607361,27.1895278,,School,DRC_All_SCHool_Local,1.3243504599864147,at-risk
Ecole secondaire Inst Kibanda,-3.5261972,27.2353056,,School,DRC_All_SCHool_Local,5.688985796932713,at-risk
Ecole secondaire Inst Beigala,-3.2485028,27.1911194,,School,DRC_All_SCHool_Local,2.3727330017215285,at-risk
Ecole secondaire Inst Mulumba,-3.4236833,27.2161806,,School,DRC_All_SCHool_Local,1.9581312206980108,at-risk
Ecole primaire Kabimbi,-3.1745306,26.62946,,School,DRC_All_SCHool_Local,1.0690699535539474,at-risk
Ecole secondaire Inst Wakabango I,-3.5677722,27.3443778,,School,DRC_All_SCHool_Local,8.625180120360007,at-risk
Ecole primaire Kalindula,-3.1404968,26.6016908,,School,DRC_All_SCHool_Local,5.9185819198419045,at-risk
École primaire Inst Nyalukungu,-3.4268194,27.2125278,,School,DRC_All_SCHool_Local,1.7910942006275328,at-risk
École primaire Luhuku,-2.8427945,28.7001438,,School,DRC_All_SCHool_Local,2.67514824765135,at-risk
Ecole secondaire Inst Lubashi,-3.2518028,28.1922528,,School,DRC_All_SCHool_Local,6.868099854637805,at-risk
Ecole primaire Kalambi,-2.9742052,28.4805779,,School,DRC_All_SCHool_Local,1.3933367257247535,at-risk
Ecole primaire Mulwa,-2.5266621,28.8299278,,School,DRC_All_SCHool_Local,0.0,at-risk
École primaire Luliba,-3.077775,28.1745528,,School,DRC_All_SCHool_Local,2.6327345207524586,at-risk
École primaire Inst Birema,-2.8364889,28.6905111,,School,DRC_All_SCHool_Local,1.9849167537847032,at-risk
Ecole primaire Camp Mweze,-2.5100556,28.8450556,,School,DRC_All_SCHool_Local,0.0,at-risk
,-3.213575,28.1570361,,School,DRC_All_SCHool_Local,1.2012496232382404,at-risk
Ecole primaire Kibukila,-3.0683972,28.1823139,,School,DRC_All_SCHool_Local,1.4593665635988124,at-risk
École primaire Buhogo,-2.8909881,28.6070784,,School,DRC_All_SCHool_Local,7.192423517988285,at-risk
École primaire Bugobe,-2.8381722,28.6832639,,School,DRC_All_SCHool_Local,2.4845203916566767,at-risk
Ecole primaire Kabilongo,-3.2190111,28.1490944,,School,DRC_All_SCHool_Local,1.8467712546675545,at-risk
Ecole secondaire Inst Kakwende,-2.8399394,28.6738045,,School,DRC_All_SCHool_Local,2.4709223011595043,at-risk
Ecole primaire Kabisa,-3.2821167,28.1150333,,School,DRC_All_SCHool_Local,2.955619268320183,at-risk
Ecole primaire Suke,-3.0677972,28.1873472,,School,DRC_All_SCHool_Local,1.5158509955689894,at-risk
Centre d'alphabetistion Locale,-3.2579944,28.1141333,,School,DRC_All_SCHool_Local,4.492937985092375,at-risk
École primaire Tchona,-3.3527972,28.0913444,,School,DRC_All_SCHool_Local,3.3716550253562914,at-risk
Ecole primaire 8éme Cepac,-3.3485056,28.0207417,,School,DRC_All_SCHool_Local,7.980687913358838,at-risk
École primaire Cibanda Celpa,-2.826249,28.7262788,,School,DRC_All_SCHool_Local,3.541499111358345,at-risk
École primaire Kitembo,-3.0623278,28.1882917,,School,DRC_All_SCHool_Local,1.054173912512655,at-risk
École primaire Inst Birema,-2.8352306,28.6909444,,School,DRC_All_SCHool_Local,1.8373211845385895,at-risk
Ecole primaire Kobokobo,-3.0422778,28.2581972,,School,DRC_All_SCHool_Local,6.559876748547723,at-risk
Ecole primaire Ciriri,-2.8595639,28.6653056,,School,DRC_All_SCHool_Local,4.321596236054273,at-risk
Ecole primaire Kabukungu,-3.0716667,28.1841611,,School,DRC_All_SCHool_Local,1.8388930743576388,at-risk
Ecole primaire Kamagega,-2.7975787,28.7224222,,School,DRC_All_SCHool_Local,3.869225285122192,at-risk
Ecole primaire Nyanja,-2.5257778,28.8571111,,School,DRC_All_SCHool_Local,0.0,at-risk
Ecole primaire Mubeza Officielle,-2.9330782,28.5314699,,School,DRC_All_SCHool_Local,0.5869603914214163,at-risk
Ecole secondaire Inst Bigombe,-3.0632472,28.1869694,,School,DRC_All_SCHool_Local,1.0471874100397602,at-risk
Ecole secondaire Inst Lubiola,-3.1940306,28.179225,,School,DRC_All_SCHool_Local,2.968133274637549,at-risk
École primaire Buhamba,-2.8816694,28.7591889,,School,DRC_All_SCHool_Local,3.48777648297603,at-risk
Ecole secondaire Inst Kakuku,-3.2842833,28.1074667,,School,DRC_All_SCHool_Local,2.109132993960562,at-risk
Ecole secondaire Inst Ita Lubigi,-3.1882,28.1827639,,School,DRC_All_SCHool_Local,3.5908547665956663,at-risk
Ecole secondaire Inst Mulama,-2.8450639,28.7848694,,School,DRC_All_SCHool_Local,1.483274045120956,at-risk
Ecole secondaire Inst Kamala,-3.2537222,28.1220389,,School,DRC_All_SCHool_Local,5.478685666484861,at-risk
École primaire Kizikibi,-3.0651722,28.2408528,,School,DRC_All_SCHool_Local,6.632897717552595,at-risk
Ecole primaire Mbeleke,-3.2788194,28.1232222,,School,DRC_All_SCHool_Local,3.9316255098439963,at-risk
Ecole primaire Nikumbu,-3.3550278,28.0890528,,School,DRC_All_SCHool_Local,3.5995135804227427,at-risk
Ecole secondaire Inst Byonga,-3.3418611,28.1305056,,School,DRC_All_SCHool_Local,5.1308145858505885,at-risk
Ecole primaire Ruvungi,-2.815475,28.6950722,,School,DRC_All_SCHool_Local,0.4204542877899862,at-risk
Ecole primaire Twabenga,-3.2763306,28.1176472,,School,DRC_All_SCHool_Local,3.5409440719410346,at-risk
Ecole secondaire Inst Miki,-2.92325,28.5206611,,School,DRC_All_SCHool_Local,1.090971377426472,at-risk
École primaire Kaboge,-3.2038917,28.1651444,,School,DRC_All_SCHool_Local,1.227862926170238,at-risk
Ecole primaire Kashanja,-2.84465,28.7851806,,School,DRC_All_SCHool_Local,1.540829501284741,at-risk
Ecole secondaire ITM Kamituga,-3.0711472,28.1845583,,School,DRC_All_SCHool_Local,1.7882915440312397,at-risk
Ecole primaire Bwishasha,-2.8417472,28.68955,,School,DRC_All_SCHool_Local,2.5776970589696617,at-risk
Ecole primaire Ntwali,-2.5122393,28.8478166,,School,DRC_All_SCHool_Local,0.0,at-risk
Ecole primaire Ubuye,-3.0744694,28.1864056,,School,DRC_All_SCHool_Local,2.1907342247961017,at-risk
Ecole primaire Makito,-3.1837861,28.1867361,,School,DRC_All_SCHool_Local,4.215473608428566,at-risk
Ecole primaire Lubanza 5éme Celpa,-2.8388361,28.7565111,,School,DRC_All_SCHool_Local,2.9412492175305602,at-risk
École primaire Izirangabo,-2.6411944,28.6576389,,School,DRC_All_SCHool_Local,0.9841626094323629,at-risk
Ecole secondaire Kimalanjala,-2.8838292,28.5746807,,School,DRC_All_SCHool_Local,6.856171466666135,at-risk
Ecole secondaire Inst Amani,-3.2459444,28.0494667,,School,DRC_All_SCHool_Local,3.9165268278861958,at-risk
École primaire Mikuba,-3.0520444,28.2052278,,School,DRC_All_SCHool_Local,2.610247383183438,at-risk
Ecole primaire Idudwe,-2.8165556,28.7446694,,School,DRC_All_SCHool_Local,5.5057258960403335,at-risk
Ecole primaire Byonga,-3.3434722,28.1297556,,School,DRC_All_SCHool_Local,4.998952447665372,at-risk
Ecole primaire Kibe,-3.1704194,28.1855306,,School,DRC_All_SCHool_Local,5.043468582526403,at-risk
École primaire Kenene,-3.3768389,28.0445222,,School,DRC_All_SCHool_Local,7.705002268492682,at-risk
Ecole primaire Kitutu,-3.2777417,28.1196889,,School,DRC_All_SCHool_Local,3.6453989892907845,at-risk
Ecole primaire Kashadu,-2.8738028,28.6959778,,School,DRC_All_SCHool_Local,3.2131473839522156,at-risk
Ecole primaire Mero / Tshanda,-3.0649722,28.1778972,,School,DRC_All_SCHool_Local,1.1678507988635627,at-risk
Ecole secondaire Inst Itudu,-2.88005,28.6449028,,School,DRC_All_SCHool_Local,6.163366721114249,at-risk
École primaire Manga,-3.1075917,28.2595222,,School,DRC_All_SCHool_Local,6.65373778217089,at-risk
Ecole secondaire Inst Ludaha,-2.8014056,28.7138528,,School,DRC_All_SCHool_Local,2.8714274070266543,at-risk
Ecole primaire Nyakaliba,-2.5183889,28.8458611,,School,DRC_All_SCHool_Local,0.0,at-risk
Ecole secondaire ITM Lubigi,-3.1883861,28.1831083,,School,DRC_All_SCHool_Local,3.6153149263478683,at-risk
École Primaire Hodari,-2.5193611,28.8561667,,School,DRC_All_SCHool_Local,0.0,at-risk
,-2.8909239,28.6068657,,School,DRC_All_SCHool_Local,7.19183547253889,at-risk
École primaire Kasaga,-3.1178899,28.2344254,,School,DRC_All_SCHool_Local,5.693068883776714,at-risk
Ecole primaire Budali,-2.8399722,28.7910833,,School,DRC_All_SCHool_Local,2.3596213756210385,at-risk
Ecole primaire Kalulu,-2.8559194,28.7725139,,School,DRC_All_SCHool_Local,0.48458945166362055,at-risk
Ecole secondaire Inst Elila,-3.2795,28.1184639,,School,DRC_All_SCHool_Local,3.4294865674909687,at-risk
Ecole primaire Inst Elitra,-3.2289444,28.2487306,,School,DRC_All_SCHool_Local,6.926031322396052,at-risk
Ecole primaire Iyanda,-3.0468306,28.2033861,,School,DRC_All_SCHool_Local,2.5594640283203316,at-risk
École primaire Icophin,-3.2785333,28.1147306,,School,DRC_All_SCHool_Local,3.1352428272080433,at-risk
Ecole secondaire Inst Kilima,-3.2970166,28.1088572,,School,DRC_All_SCHool_Local,1.9397695537211643,at-risk
Ecole secondaire Inst Kazuza,-3.3638972,28.0622694,,School,DRC_All_SCHool_Local,5.389766643908611,at-risk
Ecole primaire Cirhembo,-2.8113861,28.7472694,,School,DRC_All_SCHool_Local,5.852089524659406,at-risk
École primaire Butwa,-3.060152,28.1809166,,School,DRC_All_SCHool_Local,0.5538403012464327,at-risk
École primaire Lungwe,-2.8482111,28.6950306,,School,DRC_All_SCHool_Local,3.219808103227606,at-risk
Ecole secondaire Inst Musendo,-3.0723417,28.1806361,,School,DRC_All_SCHool_Local,1.902946368753391,at-risk
École primaire Cibugi,-2.8320727,28.6824647,,School,DRC_All_SCHool_Local,2.005521380068407,at-risk
Ecole primaire Canya,-2.4701111,28.7752222,,School,DRC_All_SCHool_Local,3.065218041453557,at-risk
Ecole primaire Tima,-3.0585806,28.1921833,,School,DRC_All_SCHool_Local,1.1947752217499723,at-risk
Ecole primaire Ludaha,-2.8001611,28.7155528,,School,DRC_All_SCHool_Local,3.103669175175861,at-risk
Ecole secondaire Burhale,-2.7049161,28.6422174,,School,DRC_All_SCHool_Local,1.1280950323119023,at-risk
Ecole secondaire Inst Longangi,-3.1695948,28.1926091,,School,DRC_All_SCHool_Local,5.675719163572984,at-risk
Ecole primaire Lwarhamba,-2.8587444,28.7570667,,School,DRC_All_SCHool_Local,2.22480652584924,at-risk
École primaire Elimu,-2.5210833,28.8588333,,School,DRC_All_SCHool_Local,0.0,at-risk
Ecole primaire Makala Catholique,-2.8333611,28.7623583,,School,DRC_All_SCHool_Local,2.965810059862952,at-risk
Ecole primaire Kito,-3.0516583,28.20215,,School,DRC_All_SCHool_Local,2.27943138645021,at-risk
École primaire Kamala 1,-3.2754806,28.1241361,,School,DRC_All_SCHool_Local,4.198239982583014,at-risk
Ecole secondaire Kakuku,-3.1938944,28.1802028,,School,DRC_All_SCHool_Local,3.0753956435448293,at-risk
Ecole primaire Igira,-2.8089167,28.7251556,,School,DRC_All_SCHool_Local,3.523158646561276,at-risk
Ecole primaire Kitumba,-3.2711361,28.1237944,,School,DRC_All_SCHool_Local,4.432104641334624,at-risk
Ecole primaire Mungombe,-3.0674944,28.2412056,,School,DRC_All_SCHool_Local,6.718935344497843,at-risk
Ecole primaire Amka,-3.3170482,27.9874396,,School,DRC_All_SCHool_Local,7.130479390839795,at-risk
,-3.329925,28.1208972,,School,DRC_All_SCHool_Local,3.7591579124427885,at-risk
Ecole primaire Kantale,-3.0469694,28.1995333,,School,DRC_All_SCHool_Local,2.1605600301433783,at-risk
École primaire Karundu,-2.8425861,28.7675472,,School,DRC_All_SCHool_Local,1.793089144381581,at-risk
Ecole secondaire Inst Katunga,-3.0565472,28.1919306,,School,DRC_All_SCHool_Local,1.1178248994987945,at-risk
Ecole primaire Alfajiri,-3.0253583,28.4436417,,School,DRC_All_SCHool_Local,0.8745646925816942,at-risk
Ecole primaire Kanyambulende,-2.6162222,28.6857222,,School,DRC_All_SCHool_Local,2.5107299940371077,at-risk
Ecole secondaire Inst Kamituga,-3.0564694,28.1898,,School,DRC_All_SCHool_Local,0.8823075710805359,at-risk
Ecole primaire Mulambi,-2.8386509,28.6877588,,School,DRC_All_SCHool_Local,2.3084084028468106,at-risk
,-2.7089361,28.6394639,,School,DRC_All_SCHool_Local,1.2045964242793772,at-risk
Ecole primaire Mwenda,-2.8497132,28.6309097,,School,DRC_All_SCHool_Local,2.4609207317361923,at-risk
Ecole primaire Kalingi Tekete,-3.0474861,28.1977639,,School,DRC_All_SCHool_Local,1.9586530414059895,at-risk
Ecole secondaire Inst Bilembo,-3.0549028,28.1908583,,School,DRC_All_SCHool_Local,0.9906950149757205,at-risk
Ecole primaire Muhuza,-2.8222119,28.7041575,,School,DRC_All_SCHool_Local,1.0510169505923952,at-risk
Ecole primaire Chipanda,-2.8615235,28.6051702,,School,DRC_All_SCHool_Local,4.22724133273319,at-risk
,-3.2973444,27.9973139,,School,DRC_All_SCHool_Local,4.689560777072355,at-risk
Ecole secondaire Inst Mango,-3.1071139,28.2667111,,School,DRC_All_SCHool_Local,6.877344320171924,at-risk
Ecole secondaire Inst Mitobo,-3.2251278,28.134975,,School,DRC_All_SCHool_Local,3.2358417514533455,at-risk
Ecole secondaire Inst Umoja,-3.3805722,28.0431167,,School,DRC_All_SCHool_Local,8.127931747237941,at-risk
Ecole secondaire Inst Mikuba,-3.3109,28.0949556,,School,DRC_All_SCHool_Local,1.530757796789452,at-risk
École primaire Ktibya,-3.3402556,28.1260806,,School,DRC_All_SCHool_Local,4.675256315426008,at-risk
Ecole primaire Tukenga,-3.3222361,28.0846139,,School,DRC_All_SCHool_Local,0.3593093135040252,at-risk
Ecole primaire Mazozo 8é Cepac,-3.1196667,28.1850611,,School,DRC_All_SCHool_Local,7.168057259816645,at-risk
Ecole primaire Witangila,-2.8790069,28.5794448,,School,DRC_All_SCHool_Local,7.492055803564344,at-risk
Ecole secondaire Ins. Sanganyi,-3.0519528,28.2009028,,School,DRC_All_SCHool_Local,2.1373535438873716,at-risk
Ecole secondaire Inst Nirinja,-2.9266861,28.6992444,,School,DRC_All_SCHool_Local,6.555005270832946,at-risk
Ecole primaire Cihanda,-2.6704444,28.8624444,,School,DRC_All_SCHool_Local,1.7926997089016612,at-risk
École primaire Lugundu,-3.0466806,28.2006056,,School,DRC_All_SCHool_Local,2.2820277937083726,at-risk
Ecole primaire Iganda,-2.9713861,28.4505139,,School,DRC_All_SCHool_Local,4.595093747873097,at-risk
École Primaire Nidunga,-2.5170556,28.8553333,,School,DRC_All_SCHool_Local,0.0,at-risk
Ecole primaire Kabumba,-3.1264083,28.2295639,,School,DRC_All_SCHool_Local,5.019044320640713,at-risk
Ecole primaire Bitanga,-3.0580889,28.186875,,School,DRC_All_SCHool_Local,0.6304544686640902,at-risk
Ecole secondaire Inst Lubanda,-2.8273555,28.6989892,,School,DRC_All_SCHool_Local,0.9956549278462252,at-risk
École primaire Ulindi,-2.5117049,28.8482021,,School,DRC_All_SCHool_Local,0.0,at-risk
Ecole secondaire Inst Buhamba,-2.8823111,28.7594806,,School,DRC_All_SCHool_Local,3.529134252037872,at-risk
École primaire Sugulu,-3.2114722,28.1610056,,School,DRC_All_SCHool_Local,1.1990066152844598,at-risk
Ecole secondaire Inst Kakemenge,-3.3346611,27.9794583,,School,DRC_All_SCHool_Local,9.279272317612717,at-risk
Ecole secondaire Itav Kalenga 1er,-3.0655694,28.2406806,,School,DRC_All_SCHool_Local,6.62153161714074,at-risk
Ecole primaire Bisenge,-2.9720542,28.4809711,,School,DRC_All_SCHool_Local,1.2623523452678236,at-risk
École primaire Butetegele,-3.2450111,28.0497806,,School,DRC_All_SCHool_Local,3.9798128212503325,at-risk
École primaire Mango,-3.1080806,28.2705694,,School,DRC_All_SCHool_Local,6.903540061749079,at-risk
Ecole secondaire Inst Elimu,-3.2881833,28.1165083,,School,DRC_All_SCHool_Local,2.8623784831514407,at-risk
Ecole primaire Musali,-3.2509111,28.1245222,,School,DRC_All_SCHool_Local,5.88693803010465,at-risk
Ecole primaire Ndjili,-3.3065861,28.1009139,,School,DRC_All_SCHool_Local,1.6872813025648938,at-risk
Ecole primaire Musenga,-3.337425,27.99245,,School,DRC_All_SCHool_Local,9.114104822201197,at-risk
Ecole primaire Bumbu,-3.0779583,28.1780361,,School,DRC_All_SCHool_Local,2.5589912124244156,at-risk
École primaire Beroya Celpa,-2.8443191,28.7317502,,School,DRC_All_SCHool_Local,3.3433321644576273,at-risk
École primaire Songa,-3.0526361,28.1978222,,School,DRC_All_SCHool_Local,1.7873742033363509,at-risk
École primaire Nirinja,-2.9267167,28.6992333,,School,DRC_All_SCHool_Local,6.558605329430547,at-risk
Ecole primaire Kahuwa,-2.5189722,28.8490278,,School,DRC_All_SCHool_Local,0.0,at-risk
Ecole primaire Isasa,-3.1015361,28.1846167,,School,DRC_All_SCHool_Local,5.15221970320235,at-risk
Ecole primaire Chishali,-2.823567,28.7360461,,School,DRC_All_SCHool_Local,4.565065868012561,at-risk
Ecole primaire Kidodobo,-2.5567364,28.7758119,,School,DRC_All_SCHool_Local,4.284881596502726,at-risk
École primaire Kambulumbulu Kizogu,-3.2624833,28.2152556,,School,DRC_All_SCHool_Local,9.464388109140419,at-risk
Ecole primaire Kakemenge / E.C.C,-3.3309972,27.975875,,School,DRC_All_SCHool_Local,9.074992203470396,at-risk
Ecole primaire Tumaini,-3.0573806,28.1988028,,School,DRC_All_SCHool_Local,1.8864903144496223,at-risk
Ecole primaire Ifendula,-2.8374861,28.7546833,,School,DRC_All_SCHool_Local,3.1933397615611607,at-risk
École primaire Kibilila,-3.2751222,28.1191917,,School,DRC_All_SCHool_Local,3.7585013352501138,at-risk
Ecole secondaire Inst Kasaga,-3.1017778,28.2207944,,School,DRC_All_SCHool_Local,6.733705900684958,at-risk
Ecole secondaire Inst Kabisa,-3.2828806,28.1148389,,School,DRC_All_SCHool_Local,2.8972980627029896,at-risk
Ecole secondaire Lycée Yano,-3.0515972,28.200925,,School,DRC_All_SCHool_Local,2.1469675647520035,at-risk
Centre d'alphabetistion El'shaddai,-3.3329694,27.9787833,,School,DRC_All_SCHool_Local,9.136532588860804,at-risk
École primaire Basilumona,-3.2869167,28.1075972,,School,DRC_All_SCHool_Local,1.9777312789093107,at-risk
École primaire Bujiri 5éme Celpa,-2.8242,28.7664722,,School,DRC_All_SCHool_Local,3.6933980837097367,at-risk
École primaire Kitumaini,-3.1741774,28.2317763,,School,DRC_All_SCHool_Local,2.188728777040309,at-risk
Ecole secondaire Inst Beroya,-2.831096,28.7442343,,School,DRC_All_SCHool_Local,4.544729636687205,at-risk
Ecole secondaire Inst Sugulu,-3.2123833,28.1612778,,School,DRC_All_SCHool_Local,1.2969250126278906,at-risk
École primaire Ciburhi,-2.8370672,28.7364541,,School,DRC_All_SCHool_Local,4.259768678402672,at-risk
Centre d'alphabetistion Kamonyi,-2.7692543,28.9708822,,School,DRC_All_SCHool_Local,2.3936734165704205,at-risk
Ecole primaire Bungalama,-3.1537639,28.2551528,,School,DRC_All_SCHool_Local,1.5449216473295306,at-risk
,-2.9785694,28.4805806,,School,DRC_All_SCHool_Local,1.6676463852499885,at-risk
Ecole primaire Cifuma,-2.5108056,28.7711944,,School,DRC_All_SCHool_Local,2.6433193081471535,at-risk
Ecole primaire Kamagambo,-3.0627222,28.1879944,,School,DRC_All_SCHool_Local,1.0660758452196613,at-risk
École primaire Katunga,-3.0568861,28.1912333,,School,DRC_All_SCHool_Local,1.04683874910421,at-risk
Ecole secondaire Makala,-2.8271389,28.7557556,,School,DRC_All_SCHool_Local,3.9523949431002157,at-risk
Ecole primaire Furaha,-2.5163333,28.8436389,,School,DRC_All_SCHool_Local,0.0,at-risk
Ecole primaire Furaha,-2.8430278,28.7936389,,School,DRC_All_SCHool_Local,2.3382583920231226,at-risk
Ecole primaire Idolo,-3.1691833,28.1915833,,School,DRC_All_SCHool_Local,5.621115541844554,at-risk
Ecole primaire Lowe,-3.1665056,28.1988194,,School,DRC_All_SCHool_Local,5.682363110380385,at-risk
,-2.8166917,28.6951389,,School,DRC_All_SCHool_Local,0.2850455584721969,at-risk
Centre d'alphabetistion El'shaddai,-3.2922694,28.1099389,,School,DRC_All_SCHool_Local,2.0585972636666146,at-risk
Ecole secondaire Inst Bwali,-3.0541806,28.1945889,,School,DRC_All_SCHool_Local,1.4093434579159305,at-risk
École primaire Kakwende,-2.84128,28.6709252,,School,DRC_All_SCHool_Local,2.462010439494174,at-risk
Ecole primaire Kizila,-3.2883417,28.11615,,School,DRC_All_SCHool_Local,2.8194665603484537,at-risk
Ecole secondaire Itav Byonga,-3.3292944,28.1195083,,School,DRC_All_SCHool_Local,3.593710496305523,at-risk
Ecole primaire Tumnkele,-3.2776083,28.0155722,,School,DRC_All_SCHool_Local,2.229969663594341,at-risk
Ecole secondaire Inst Nyamibungu,-3.2572806,28.117975,,School,DRC_All_SCHool_Local,4.880873526050019,at-risk
Ecole primaire Ngando,-2.8050556,28.8247778,,School,DRC_All_SCHool_Local,1.5321682205665057,at-risk
Ecole secondaire Inst Kizikibi,-3.1537178,28.2592698,,School,DRC_All_SCHool_Local,1.770157334865399,at-risk
Ecole secondaire Ushirika Celpa,-2.8381861,28.7550944,,School,DRC_All_SCHool_Local,3.1087608320392475,at-risk
Ecole primaire Mawe,-3.1536639,28.2596194,,School,DRC_All_SCHool_Local,1.7978204107211926,at-risk
Ecole primaire Katugutu,-2.9888722,28.7198833,,School,DRC_All_SCHool_Local,6.927356568509909,at-risk
École primaire Walungu,-2.6236389,28.7086944,,School,DRC_All_SCHool_Local,4.7911508113183565,at-risk
Ecole primaire Kabeba,-3.0451194,28.2556,,School,DRC_All_SCHool_Local,6.937994815585952,at-risk
Ecole primaire Bethel,-3.0657444,28.1942306,,School,DRC_All_SCHool_Local,1.793225473752519,at-risk
Ecole primaire Ashi'a,-2.9274226,28.5247812,,School,DRC_All_SCHool_Local,0.5792299950597877,at-risk
Ecole primaire Bushale,-2.898694,28.6389005,,School,DRC_All_SCHool_Local,7.961283851005426,at-risk
Ecole primaire Biligi,-3.3434278,28.1327583,,School,DRC_All_SCHool_Local,4.877324569656609,at-risk
Ecole primaire Kamala 2,-3.261728,28.1156474,,School,DRC_All_SCHool_Local,4.381252410687655,at-risk
Ecole secondaire Inst Tuna,-3.119175,28.192475,,School,DRC_All_SCHool_Local,7.20059649621312,at-risk
Ecole secondaire Inst Kabukungu,-3.0630639,28.1899889,,School,DRC_All_SCHool_Local,1.243974211515972,at-risk
Ecole secondaire Inst Tukenga,-3.3474361,28.0187972,,School,DRC_All_SCHool_Local,8.141479573656188,at-risk
Ecole secondaire Inst Kakemenge,-3.2767167,28.0167222,,School,DRC_All_SCHool_Local,2.1588828276521834,at-risk
Ecole secondaire Inst Karhala,-3.3378583,27.9927306,,School,DRC_All_SCHool_Local,9.153508451292913,at-risk
Ecole secondaire Itav,-3.0592432,28.1927855,,School,DRC_All_SCHool_Local,1.282008523396398,at-risk
Ecole primaire Nyakalongo,-3.0230111,28.4429,,School,DRC_All_SCHool_Local,1.1070134839392176,at-risk
Ecole primaire Mitobo,-3.2254861,28.1357694,,School,DRC_All_SCHool_Local,3.209340816703437,at-risk
Ecole primaire Tuendelee,-2.5274167,28.8572778,,School,DRC_All_SCHool_Local,0.0,at-risk
Ecole secondaire Inst Lolwe,-3.31695,28.1936111,,School,DRC_All_SCHool_Local,9.054873027736097,at-risk
Ecole primaire Muhuza,-2.8192389,28.6951722,,School,DRC_All_SCHool_Local,0.0018251732780469898,at-risk
École Primaire Nguba,-2.4989352,28.8875337,,School,DRC_All_SCHool_Local,0.0,at-risk
Ecole secondaire Inst Bigombe,-3.0662528,28.1796222,,School,DRC_All_SCHool_Local,1.2472761293585,at-risk
Centre d'alphabetistion Ceprata,-3.0443634,28.2067497,,School,DRC_All_SCHool_Local,3.009891703072928,at-risk
Ecole secondaire Inst Kitwabaluzi,-2.8824596,28.6001726,,School,DRC_All_SCHool_Local,6.556249831833962,at-risk
,-2.5870278,28.7333639,,School,DRC_All_SCHool_Local,6.736776675005182,at-risk
Ecole primaire Cikonjolo,-2.8906111,28.6763,,School,DRC_All_SCHool_Local,5.720150287049252,at-risk
Ecole primaire Lusungu,-3.0623667,28.1944139,,School,DRC_All_SCHool_Local,1.5932541508258655,at-risk
Ecole primaire Itabi,-3.0524056,28.1990806,,School,DRC_All_SCHool_Local,1.9294171198057857,at-risk
École primaire Kimalanjala,-2.8848455,28.5756976,,School,DRC_All_SCHool_Local,6.856609275057985,at-risk
Ecole primaire Nyamibungu,-3.2547667,28.1201639,,School,DRC_All_SCHool_Local,5.242388312566555,at-risk
Centre d'alphabetistion Celpa,-3.2189111,28.1466361,,School,DRC_All_SCHool_Local,1.936449238748263,at-risk
Ecole primaire Budaha,-2.8235806,28.6708361,,School,DRC_All_SCHool_Local,0.9760725722832899,at-risk
École primaire Sebe,-3.3334667,27.98385,,School,DRC_All_SCHool_Local,8.975237639513063,at-risk
Ecole secondaire Kamituga,-3.0631917,28.1858556,,School,DRC_All_SCHool_Local,0.9813144947388848,at-risk
Ecole primaire Lutulilo,-3.3516216,28.0875899,,School,DRC_All_SCHool_Local,3.218260453199328,at-risk
Ecole primaire Itumba,-3.2872667,28.1068444,,School,DRC_All_SCHool_Local,1.8855520460609898,at-risk
Ecole secondaire Inst Kalokalo,-3.2967861,28.0007889,,School,DRC_All_SCHool_Local,4.5089032442132595,at-risk
École primaire Kabingu Celpa,-2.8129944,28.7273972,,School,DRC_All_SCHool_Local,3.646354167906515,at-risk
Ecole secondaire Inst Mugamba,-2.9266855,28.6996749,,School,DRC_All_SCHool_Local,6.534299041339433,at-risk
École primaire Amina,-3.2269639,28.1311722,,School,DRC_All_SCHool_Local,3.671635637230733,at-risk
Ecole primaire Itudu,-2.8798083,28.6471222,,School,DRC_All_SCHool_Local,6.234839634552853,at-risk
Ecole primaire Isoga,-3.3166583,28.1951167,,School,DRC_All_SCHool_Local,9.175829618676811,at-risk
,-2.9790413,28.4757017,,School,DRC_All_SCHool_Local,2.1315765569577394,at-risk
École primaire Walungu,-2.6241944,28.6705556,,School,DRC_All_SCHool_Local,0.6981784169968417,at-risk
École primaire Imani,-3.0646861,28.1901694,,School,DRC_All_SCHool_Local,1.3887207199793041,at-risk
Ecole primaire Tangila,-3.0520917,28.1993806,,School,DRC_All_SCHool_Local,1.9682592464608335,at-risk
Ecole primaire Ishundu,-2.8554806,28.7701139,,School,DRC_All_SCHool_Local,0.7513483873306429,at-risk
Ecole secondaire Inst Bugoma,-2.9754444,28.4777611,,School,DRC_All_SCHool_Local,1.7348072682441824,at-risk
Ecole primaire Kazuza,-3.3609583,28.070725,,School,DRC_All_SCHool_Local,4.660214034011231,at-risk
École primaire Inst Tangila,-3.0520806,28.1982333,,School,DRC_All_SCHool_Local,1.843327707266537,at-risk
Ecole primaire Mulama,-2.8502968,28.7737555,,School,DRC_All_SCHool_Local,0.6982070468383714,at-risk
Ecole primaire Kabuzu,-3.2466111,28.1244222,,School,DRC_All_SCHool_Local,5.847153914763616,at-risk
École primaire Kenge,-3.0643778,28.1800778,,School,DRC_All_SCHool_Local,1.0328514762722614,at-risk
Ecole primaire Lupimbi,-3.3497444,28.0179389,,School,DRC_All_SCHool_Local,8.320554833991764,at-risk
Ecole secondaire Inst Itula,-3.3568222,28.0820583,,School,DRC_All_SCHool_Local,3.849937612806066,at-risk
Ecole primaire Lubemba,-3.3088917,28.0969194,,School,DRC_All_SCHool_Local,1.6936411777584617,at-risk
Ecole primaire Cibanda,-2.7884444,28.8133056,,School,DRC_All_SCHool_Local,3.594166782208189,at-risk
Ecole primaire Luna,-3.1027917,28.2178556,,School,DRC_All_SCHool_Local,6.619109838357709,at-risk
Ecole primaire Mwaka,-2.8201667,28.8203889,,School,DRC_All_SCHool_Local,0.4641075123381,at-risk
Ecole primaire Luliba Itumba,-3.2519667,28.192575,,School,DRC_All_SCHool_Local,6.904523990292264,at-risk
École primaire Cishukwe,-2.8415185,28.67218,,School,DRC_All_SCHool_Local,2.5422818770707134,at-risk
Bwindi,-2.4757041,28.8379998,,School,DRC_All_SCHool_Local,0.0,at-risk
École primaire Mutezi,-3.1843833,28.1876722,,School,DRC_All_SCHool_Local,4.272239794287995,at-risk
Ecole primaire Kangola,-2.898304,28.5657381,,School,DRC_All_SCHool_Local,5.029740979003506,at-risk
Ecole primaire Karhendezi,-2.8021417,28.685075,,School,DRC_All_SCHool_Local,2.2085811509969373,at-risk
Ecole secondaire Inst Bitanga,-3.0586556,28.18655,,School,DRC_All_SCHool_Local,0.634523522810267,at-risk
Ecole primaire Kamisege,-3.0691222,28.2483889,,School,DRC_All_SCHool_Local,7.536676728960177,at-risk
Ecole primaire Makala Catholique,-2.8271611,28.7551222,,School,DRC_All_SCHool_Local,3.9925732052362104,at-risk
École primaire Kele Kamituga,-3.0576556,28.1976639,,School,DRC_All_SCHool_Local,1.7653947565533494,at-risk
Ecole primaire Nyamukingu,-3.3513028,28.0201917,,School,DRC_All_SCHool_Local,8.153974197085581,at-risk
Ecole primaire Bigombe,-3.1229333,28.1940917,,School,DRC_All_SCHool_Local,7.642884159617825,at-risk
Ecole primaire Kibenge,-3.3566425,28.0825976,,School,DRC_All_SCHool_Local,3.8206944268734397,at-risk
